[
    {
        "name": "Pharmacie La Lavande",
        "address": "hay Rajae , rue 2 n°13 Champ de Cours FES",
        "phone": "05 35 60 78 79",
        "location": "https://www.telecontact.ma/plan-acces/pharmacie-la-lavande-/3268161/fes",
        "city": "Fès"
    },
    {
        "name": "Pharmacie la Ménara",
        "address": "635, bd Al Karaouiyine, Narjiss C rtede Sefrou FES",
        "phone": "05 35 65 86 94",
        "location": "https://www.telecontact.ma/plan-acces/pharmacie-la-m-nara-/3197436/fes",
        "city": "Fès"
    },
    {
        "name": "Pharmacie La Suite",
        "address": "85, lotiss. Riad Nakhil, rte Immouzzer FES",
        "phone": "05 35 60 36 49",
        "location": "https://www.telecontact.ma/plan-acces/pharmacie-la-suite-/3271321/fes",
        "city": "Fès"
    },
    {
        "name": "Pharmacie la Tulipe",
        "address": "9, rte Ain Smen, résid. Bismi Allah FES",
        "phone": "05 35 60 20 60",
        "location": "https://www.telecontact.ma/plan-acces/pharmacie-la-tulipe-/3202481/fes",
        "city": "Fès"
    },
    {
        "name": "Pharmacie la Victoire",
        "address": "9, bd Abou Houraira, Mont fleuri 1 FES",
        "phone": "05 35 73 23 80",
        "location": "https://www.telecontact.ma/plan-acces/pharmacie-la-victoire-/3045493/fes",
        "city": "Fès"
    },
    {
        "name": "Pharmacie Laguzira",
        "address": "13, derb Ferrane Cherrada, Laguzira Medina FES",
        "phone": "05 35 76 39 00",
        "location": "https://www.telecontact.ma/plan-acces/pharmacie-laguzira-/3046696/fes",
        "city": "Fès"
    },
    {
        "name": "Pharmacie Lahbabi",
        "address": "bd Beyrouth, résid. Rawd Azhar Montfleuri II FES",
        "phone": "05 35 60 84 07",
        "location": "https://www.telecontact.ma/plan-acces/pharmacie-lahbabi-/3267557/fes",
        "city": "Fès"
    },
    {
        "name": "Pharmacie Lahlou",
        "address": "121, rue Grande rue, Hay Fès Jdid, 30000  FES",
        "phone": "05 35 62 59 76",
        "location": "https://www.telecontact.ma/plan-acces/pharmacie-lahlou-/1478000/fes",
        "city": "Fès"
    },
    {
        "name": "Pharmacie Lalla Soukaina",
        "address": "23, hay Lalla Soukaina , rue 23 n°1, Zouagha FES",
        "phone": "05 35 60 25 17",
        "location": "https://www.telecontact.ma/plan-acces/pharmacie-lalla-soukaina-/3049379/fes",
        "city": "Fès"
    },
    {
        "name": "Pharmacie Lblida",
        "address": "30, derb Chouwara, hay Lblida FES",
        "phone": "06 32 77 57 20",
        "location": "https://www.telecontact.ma/plan-acces/pharmacie-lblida-/3268132/fes",
        "city": "Fès"
    },
    {
        "name": "Pharmacie Le Coin",
        "address": "46, hay Al Jadid , Zouagha FES",
        "phone": "05 35 60 98 54",
        "location": "https://www.telecontact.ma/plan-acces/pharmacie-le-coin-/3227332/fes",
        "city": "Fès"
    },
    {
        "name": "Pharmacie le Docteur",
        "address": "73, bd Anoual, Narjiss D FES",
        "phone": "05 35 61 93 77",
        "location": "https://www.telecontact.ma/plan-acces/pharmacie-le-docteur-/3045662/fes",
        "city": "Fès"
    },
    {
        "name": "Pharmacie Le Khawarizmi",
        "address": "410 Bis, hay Jdid, Bensouda FES",
        "phone": "05 35 65 57 73",
        "location": "https://www.telecontact.ma/plan-acces/pharmacie-le-khawarizmi-/3045514/fes",
        "city": "Fès"
    },
    {
        "name": "Pharmacie le Palais",
        "address": "hay Tarik 1, Essanabil FES",
        "phone": "05 34 05 98 01",
        "location": "https://www.telecontact.ma/plan-acces/pharmacie-le-palais-/3267549/fes",
        "city": "Fès"
    },
    {
        "name": "Pharmacie le Remède",
        "address": "3, bd Hassan Ibn Noamane, hay Taj FES",
        "phone": "05 35 75 58 30",
        "location": "https://www.telecontact.ma/plan-acces/pharmacie-le-rem-de-/3267552/fes",
        "city": "Fès"
    },
    {
        "name": "Pharmacie Le Soleil",
        "address": "1, lotiss. Ennamae, C6 q.i. Bensouda, 30000  FES",
        "phone": "05 35 72 98 30",
        "location": "https://www.telecontact.ma/plan-acces/pharmacie-le-soleil-/3227249/fes",
        "city": "Fès"
    },
    {
        "name": "Pharmacie Les Champs",
        "address": "hay Tazi, rue 7 n°11 bis, Merja FES",
        "phone": "05 35 72 69 68",
        "location": "https://www.telecontact.ma/plan-acces/pharmacie-les-chands-/3267225/fes",
        "city": "Fès"
    },
    {
        "name": "Pharmacie les Mérinides",
        "address": "24, hay Benzakour, Dhar Lakhmiss, 30000  FES",
        "phone": "05 35 64 51 69",
        "location": "https://www.telecontact.ma/plan-acces/pharmacie-les-m-rinides-/1478200/fes",
        "city": "Fès"
    },
    {
        "name": "Pharmacie les Trois Sources",
        "address": "rte d'Imouzzer, lotiss. Labar n°61 FES",
        "phone": "05 35 96 33 00",
        "location": "https://www.telecontact.ma/plan-acces/pharmacie-les-trois-sources-/3267963/fes",
        "city": "Fès"
    },
    {
        "name": "Pharmacie Lina",
        "address": "119, bd Al Majd, rte de Sefrou, hay Narjis C FES",
        "phone": "05 35 73 37 21",
        "location": "https://www.telecontact.ma/plan-acces/pharmacie-lina-/3046700/fes",
        "city": "Fès"
    },
    {
        "name": "Pharmacie Sagha",
        "address": "42, rue Sagha , 30000  FES",
        "phone": "05 35 63 40 42",
        "location": "https://www.telecontact.ma/plan-acces/pharmacie-sagha-/0304600/fes",
        "city": "Fès"
    },
    {
        "name": "Pharmacie Saida",
        "address": "hay Saida , résid. Saida n°96 FES",
        "phone": "05 35 64 58 07",
        "location": "",
        "city": "Fès"
    },
    {
        "name": "Pharmacie Saiss",
        "address": "hay Pam, rue A n°13 q. Bensouda FES",
        "phone": "05 35 65 52 13",
        "location": "https://www.telecontact.ma/plan-acces/pharmacie-saiss-/3046905/fes",
        "city": "Fès"
    },
    {
        "name": "Pharmacie Salah",
        "address": "116, lotiss. Al Hadika, q 4 Oued Fès FES",
        "phone": "05 35 75 67 03",
        "location": "https://www.telecontact.ma/plan-acces/pharmacie-salah-/3226740/fes",
        "city": "Fès"
    },
    {
        "name": "Pharmacie Salsabil",
        "address": "1, rue Manama, Mont Fleuri FES",
        "phone": "05 35 96 26 16",
        "location": "https://www.telecontact.ma/plan-acces/pharmacie-salsabil-/3266031/fes",
        "city": "Fès"
    },
    {
        "name": "Pharmacie Sandra",
        "address": "lotiss. Moussassfir 2 , Boudhar Bensouda FES",
        "phone": "05 35 72 60 03",
        "location": "https://www.telecontact.ma/plan-acces/pharmacie-sandra-/3275667/fes",
        "city": "Fès"
    },
    {
        "name": "Pharmacie Saquia Alhamra",
        "address": "hay El Qods 2, bloc 15 n°30, Erac Sidi Brahim FES",
        "phone": "05 35 64 42 93",
        "location": "https://www.telecontact.ma/plan-acces/pharmacie-saquia-alhamra-/3197389/fes",
        "city": "Fès"
    },
    {
        "name": "Pharmacie Sebti",
        "address": "rue Benzakour, bloc C n°1 FES",
        "phone": "05 35 64 06 66",
        "location": "https://www.telecontact.ma/plan-acces/pharmacie-sebti-/3269749/fes",
        "city": "Fès"
    },
    {
        "name": "Pharmacie Sefrioui",
        "address": "rte Ain Chkef, km 2 coopérative Elamal FES",
        "phone": "05 35 61 26 39",
        "location": "https://www.telecontact.ma/plan-acces/pharmacie-sefrioui-/3197386/fes",
        "city": "Fès"
    },
    {
        "name": "Pharmacie Sehb Elward",
        "address": "hay Sehb El Ward, rue 3 n°5 bled Bennani FES",
        "phone": "05 35 76 14 84",
        "location": "https://www.telecontact.ma/plan-acces/pharmacie-sehb-elward-/3197382/fes",
        "city": "Fès"
    },
    {
        "name": "Pharmacie Sehrij Gnaoua",
        "address": "hay Sahrij Gnaoua, bled Tahri n°201 FES",
        "phone": "05 35 63 08 16",
        "location": "https://www.telecontact.ma/plan-acces/pharmacie-sehrij-gnaoua-/3197380/fes",
        "city": "Fès"
    },
    {
        "name": "Pharmacie Sekkat",
        "address": "22, hay Annakhil, rte Aïn Smen, 30000  FES",
        "phone": "05 35 60 81 12",
        "location": "https://www.telecontact.ma/plan-acces/pharmacie-sekkat-/3197373/fes",
        "city": "Fès"
    },
    {
        "name": "Pharmacie Sidi Ahmed Chaoui",
        "address": "28, Chaoui Siége ang. Sidi Ahmed Talaâ Sghira FES",
        "phone": "05 35 74 05 73",
        "location": "https://www.telecontact.ma/plan-acces/pharmacie-sidi-ahmed-chaoui-/3251044/fes",
        "city": "Fès"
    },
    {
        "name": "Pharmacie Sidi Ali Boughaleb",
        "address": "Bab Ftouh, Bechak Ainou n°42, 30000  FES",
        "phone": "05 35 64 95 00",
        "location": "https://www.telecontact.ma/plan-acces/pharmacie-sidi-ali-boughaleb-/1621600/fes",
        "city": "Fès"
    },
    {
        "name": "Pharmacie Sidi Boujida",
        "address": "11, Arsat Bennani  FES",
        "phone": "05 35 64 87 03",
        "location": "https://www.telecontact.ma/plan-acces/pharmacie-sidi-boujida-/3049566/fes",
        "city": "Fès"
    },
    {
        "name": "Pharmacie sidi brahim",
        "address": "hay El Qods 2, bloc 13 l'Erac Sidi Brahim FES",
        "phone": "05 35 64 02 22",
        "location": "https://www.telecontact.ma/plan-acces/pharmacie-sidi-brahim-/3045957/fes",
        "city": "Fès"
    },
    {
        "name": "Pharmacie Sidi El Hadi",
        "address": "hay Sidi El Hadi, rue 17 n°242 FES",
        "phone": "05 35 60 33 14",
        "location": "https://www.telecontact.ma/plan-acces/pharmacie-sidi-el-hadi-/3252831/fes",
        "city": "Fès"
    },
    {
        "name": "Pharmacie Skalli",
        "address": "71, lotiss. Essalam, rte de Sefrou FES",
        "phone": "05 35 76 88 84",
        "location": "https://www.telecontact.ma/plan-acces/pharmacie-skalli-/3286417/fes",
        "city": "Fès"
    },
    {
        "name": "Pharmacie Slaoui",
        "address": "rue Sinae, bled Ghiati, Mont Fleuri 2 FES",
        "phone": "05 35 61 42 04",
        "location": "https://www.telecontact.ma/plan-acces/pharmacie-slaoui-/3197366/fes",
        "city": "Fès"
    },
    {
        "name": "Pharmacie Sokrat AlHakim",
        "address": "95, lotiss. Al Karaouiyine, résid. AlBaraka FES",
        "phone": "05 35 60 12 06",
        "location": "https://www.telecontact.ma/plan-acces/pharmacie-sokrat-alhakim-/3269665/fes",
        "city": "Fès"
    },
    {
        "name": "Pharmacie Demnati",
        "address": "9, hay Griou, Zouara FES",
        "phone": "05 35 60 07 84",
        "location": "https://www.telecontact.ma/plan-acces/pharmacie-demnati-/3267957/fes",
        "city": "Fès"
    },
    {
        "name": "Pharmacie Derb ElWard",
        "address": "bd Ibn El Khatib, résid. ElKawtar, rte Aïn Chkef FES",
        "phone": "05 35 60 67 67",
        "location": "https://www.telecontact.ma/plan-acces/pharmacie-derb-elward-/3049583/fes",
        "city": "Fès"
    },
    {
        "name": "Pharmacie Derb-lamty",
        "address": "1, derb Lamti, Fouah FES",
        "phone": "05 35 76 15 83",
        "location": "https://www.telecontact.ma/plan-acces/pharmacie-derb-lamty-/3047198/fes",
        "city": "Fès"
    },
    {
        "name": "Pharmacie des F.a.r.",
        "address": "rte de Meknès, Dokkarat FES",
        "phone": "05 35 94 22 50",
        "location": "https://www.telecontact.ma/plan-acces/pharmacie-des-f-a-r-/3045780/fes",
        "city": "Fès"
    },
    {
        "name": "Pharmacie des Palmiers",
        "address": "14, bd Hassan II , 30000  FES",
        "phone": "05 35 62 12 84",
        "location": "https://www.telecontact.ma/plan-acces/pharmacie-des-palmiers-/1477900/fes",
        "city": "Fès"
    },
    {
        "name": "Pharmacie des Platanes",
        "address": "6, bd Al Wahda , hay Hassani route Ain Chkef FES",
        "phone": "05 35 96 29 28",
        "location": "https://www.telecontact.ma/plan-acces/pharmacie-des-platanes-/3268162/fes",
        "city": "Fès"
    },
    {
        "name": "Pharmacie des Roches",
        "address": "69, lotiss. Riad Yasmine, rte Ain Chkef FES",
        "phone": "05 35 96 60 61",
        "location": "https://www.telecontact.ma/plan-acces/pharmacie-des-roches-/3286839/fes",
        "city": "Fès"
    },
    {
        "name": "Pharmacie des Sciences",
        "address": "12, lotiss. Al Karaouiyine  FES",
        "phone": "05 35 72 51 25",
        "location": "https://www.telecontact.ma/plan-acces/pharmacie-des-sciences-/3265950/fes",
        "city": "Fès"
    },
    {
        "name": "Pharmacie Dhar Elmahraz",
        "address": "2, rue Ohoud, dhar Elmahraz FES",
        "phone": "05 35 64 20 21",
        "location": "https://www.telecontact.ma/plan-acces/pharmacie-dhar-elmahraz-/3047197/fes",
        "city": "Fès"
    },
    {
        "name": "Pharmacie Diamant Vert",
        "address": "886, lotiss. Al Karaouiyine, rte Ain chkef FES",
        "phone": "06 65 23 27 99",
        "location": "https://www.telecontact.ma/plan-acces/pharmacie-diamant-vert-/3234669/fes",
        "city": "Fès"
    },
    {
        "name": "Pharmacie Dokkarat",
        "address": "1, bd des F.a.r., q. Dokkarat, imm.G Rte de Meknes FES",
        "phone": "05 35 62 09 21",
        "location": "https://www.telecontact.ma/plan-acces/pharmacie-dokkarat-/3047130/fes",
        "city": "Fès"
    },
    {
        "name": "Pharmacie Douiet",
        "address": "Douiet Commune Sbaa Rouadi  FES",
        "phone": "05 35 72 60 23",
        "location": "https://www.telecontact.ma/plan-acces/pharmacie-douiet-/3226853/fes",
        "city": "Fès"
    },
    {
        "name": "Pharmacie du Boulevard",
        "address": "29, bd Chefchaouni , 30000  FES",
        "phone": "05 35 62 48 88",
        "location": "https://www.telecontact.ma/plan-acces/pharmacie-du-boulevard-/0302600/fes",
        "city": "Fès"
    },
    {
        "name": "Pharmacie du Lido",
        "address": "8, bd Joulane, Lido hay Dhar El Mehraz, 30000  FES",
        "phone": "05 35 64 10 97",
        "location": "https://www.telecontact.ma/plan-acces/pharmacie-du-lido-/1170600/fes",
        "city": "Fès"
    },
    {
        "name": "Pharmacie du Maroc",
        "address": "2, pl. Batha , 30000  FES",
        "phone": "05 35 63 35 74",
        "location": "https://www.telecontact.ma/plan-acces/pharmacie-du-maroc-/0303800/fes",
        "city": "Fès"
    },
    {
        "name": "Pharmacie du Passage",
        "address": "38, bd Abdelaziz Boutaleb  FES",
        "phone": "05 35 65 03 63",
        "location": "https://www.telecontact.ma/plan-acces/pharmacie-du-passage-/3049531/fes",
        "city": "Fès"
    },
    {
        "name": "Pharmacie Echadli",
        "address": "lotiss. Anbra , S3 45 fin rte Ain Smen FES",
        "phone": "05 35 96 48 99",
        "location": "https://www.telecontact.ma/plan-acces/pharmacie-echadli-/3253098/fes",
        "city": "Fès"
    },
    {
        "name": "Pharmacie El Attar",
        "address": "hay Jini, rue 8 Doukkarat FES",
        "phone": "05 35 94 30 30",
        "location": "https://www.telecontact.ma/plan-acces/pharmacie-el-attar-/3274283/fes",
        "city": "Fès"
    },
    {
        "name": "Pharmacie El Boutahri",
        "address": "lotiss. Bel Air, Masjid 1, rte Ras Lma FES",
        "phone": "05 35 72 98 47",
        "location": "https://www.telecontact.ma/plan-acces/pharmacie-el-boutahri-/3253093/fes",
        "city": "Fès"
    },
    {
        "name": "Pharmacie El Houda",
        "address": "bd Abou Houraira, mont Fleuri 1 FES",
        "phone": "05 35 64 46 57",
        "location": "https://www.telecontact.ma/plan-acces/pharmacie-el-houda-/3082215/fes",
        "city": "Fès"
    },
    {
        "name": "Pharmacie de l'Hôpital Universitaire",
        "address": "rue Al Madina Al Mounaouara, hay El Amal Rte Sefrou FES",
        "phone": "05 35 61 56 83",
        "location": "https://www.telecontact.ma/plan-acces/pharmacie-de-l-h-pital-universitaire-/3227297/fes",
        "city": "Fès"
    },
    {
        "name": "Pharmacie de la Croix Verte",
        "address": "112, bd Mohammed V , 30000  FES",
        "phone": "05 35 62 25 23",
        "location": "https://www.telecontact.ma/plan-acces/pharmacie-de-la-croix-verte-/0302800/fes",
        "city": "Fès"
    },
    {
        "name": "Pharmacie de la Gare AlDandashy",
        "address": "21, rue Imam Chafii  FES",
        "phone": "05 35 65 24 75",
        "location": "https://www.telecontact.ma/plan-acces/pharmacie-de-la-gare-aldandashy-/3046876/fes",
        "city": "Fès"
    },
    {
        "name": "Pharmacie de la Liberté",
        "address": "pl. Al Moukaouama , 30000  FES",
        "phone": "05 35 62 19 73",
        "location": "https://www.telecontact.ma/plan-acces/pharmacie-de-la-libert-/0303700/fes",
        "city": "Fès"
    },
    {
        "name": "Pharmacie de la santé",
        "address": "58, rue Ismailia, Mont Fleuri I FES",
        "phone": "05 35 65 67 23",
        "location": "https://www.telecontact.ma/plan-acces/pharmacie-de-la-sant-/3050262/fes",
        "city": "Fès"
    },
    {
        "name": "Pharmacie de Paris",
        "address": "156, bd Wahrane, ang. rue de paris mont fleuri I FES",
        "phone": "05 35 96 09 41",
        "location": "https://www.telecontact.ma/plan-acces/pharmacie-de-paris-/3142132/fes",
        "city": "Fès"
    },
    {
        "name": "Pharmacie Debbagh",
        "address": "bd Abou Obeida Ibnou Al Jarrah , 30000  FES",
        "phone": "05 35 62 23 81",
        "location": "https://www.telecontact.ma/plan-acces/pharmacie-debbagh-/0304300/fes",
        "city": "Fès"
    },
    {
        "name": "Pharmacie Ait Skatto",
        "address": "29, rue Soulaimane El Mouahidi , Ait Skatto FES",
        "phone": "05 35 74 86 73",
        "location": "https://www.telecontact.ma/plan-acces/pharmacie-ait-skatto-/3045538/fes",
        "city": "Fès"
    },
    {
        "name": "Pharmacie Al Ambra",
        "address": "38, bd Ibn El Khatib, derb El Ward FES",
        "phone": "05 35 60 56 14",
        "location": "https://www.telecontact.ma/plan-acces/pharmacie-al-ambra-/3225339/fes",
        "city": "Fès"
    },
    {
        "name": "Pharmacie Al Fajr",
        "address": "143, hay Riad, Narjiss FES",
        "phone": "05 35 94 23 03",
        "location": "https://www.telecontact.ma/plan-acces/pharmacie-al-fajr-/3271317/fes",
        "city": "Fès"
    },
    {
        "name": "Pharmacie Al Farouk",
        "address": "9 Bis, hay Sidi El Hadi, Zouagha FES",
        "phone": "05 35 60 47 72",
        "location": "https://www.telecontact.ma/plan-acces/pharmacie-al-farouk-/3252828/fes",
        "city": "Fès"
    },
    {
        "name": "Pharmacie Al Ichrak",
        "address": "367, bd Ahmed Balafrej, Al Adarissa FES",
        "phone": "05 35 60 77 87",
        "location": "https://www.telecontact.ma/plan-acces/pharmacie-al-ichrak-/3265941/fes",
        "city": "Fès"
    },
    {
        "name": "Pharmacie Al Ihssane",
        "address": "6, lotiss. El Wafa, bd My Rachid, rte Seffrou FES",
        "phone": "05 35 61 94 00",
        "location": "https://www.telecontact.ma/plan-acces/pharmacie-al-ihssane-/3046768/fes",
        "city": "Fès"
    },
    {
        "name": "Pharmacie Al Ikhwa",
        "address": "1, lotiss. Marbella, rte Ain Chkef FES",
        "phone": "05 35 96 20 95",
        "location": "https://www.telecontact.ma/plan-acces/pharmacie-al-ikhwa-/3271319/fes",
        "city": "Fès"
    },
    {
        "name": "Pharmacie Al Imam Malik",
        "address": "3, lotiss. Tghat 2, lot 184 FES",
        "phone": "05 35 64 58 15",
        "location": "https://www.telecontact.ma/plan-acces/pharmacie-al-imam-malik-/3227294/fes",
        "city": "Fès"
    },
    {
        "name": "Pharmacie Al khattabi",
        "address": "lotiss. Dalila, Zouagha FES",
        "phone": "05 35 72 99 19",
        "location": "https://www.telecontact.ma/plan-acces/pharmacie-al-khattabi-/3252967/fes",
        "city": "Fès"
    },
    {
        "name": "Pharmacie Al Madina",
        "address": "809, lotiss. Al Karaouiyine, rte Ain Chkef FES",
        "phone": "05 35 60 46 86",
        "location": "https://www.telecontact.ma/plan-acces/pharmacie-al-madina-/3266060/fes",
        "city": "Fès"
    },
    {
        "name": "Pharmacie Al Majd",
        "address": "119, bd Al Karaouiyine, lot 23/B, Narjiss FES",
        "phone": "05 35 61 64 47",
        "location": "https://www.telecontact.ma/plan-acces/pharmacie-al-majd-/3267493/fes",
        "city": "Fès"
    },
    {
        "name": "Pharmacie Al Marwa",
        "address": "214, lotiss. Hadika , q2 rte Mèknes FES",
        "phone": "05 35 64 64 99",
        "location": "https://www.telecontact.ma/plan-acces/pharmacie-al-marwa-/3250507/fes",
        "city": "Fès"
    },
    {
        "name": "Pharmacie Al Ouafae",
        "address": "394, lotiss. El Wafa  FES",
        "phone": "05 35 61 92 01",
        "location": "https://www.telecontact.ma/plan-acces/pharmacie-al-ouafae-/3175721/fes",
        "city": "Fès"
    },
    {
        "name": "Pharmacie Al Yousr",
        "address": "rte d'Imouzzer, lot 15 Cplxe Essalam, Derb Chraibi FES",
        "phone": "05 35 60 92 93",
        "location": "https://www.telecontact.ma/plan-acces/pharmacie-al-yousr-/3197467/fes",
        "city": "Fès"
    },
    {
        "name": "Pharmacie AlAbawayne",
        "address": "hay Nassim, lot 9 bloc 3 Bensouda FES",
        "phone": "05 35 72 63 64",
        "location": "https://www.telecontact.ma/plan-acces/pharmacie-alabawayne-/3265939/fes",
        "city": "Fès"
    },
    {
        "name": "Pharmacie Alae Arrahmane",
        "address": "435, rue Al Bahr Al Mayit, hay Riad FES",
        "phone": "05 35 61 61 69",
        "location": "https://www.telecontact.ma/plan-acces/pharmacie-alae-arrahmane-/3268218/fes",
        "city": "Fès"
    },
    {
        "name": "Pharmacie AlAhbab",
        "address": "lotiss. Fadila 3, rte Ain Chkef FES",
        "phone": "05 34 87 00 90",
        "location": "https://www.telecontact.ma/plan-acces/pharmacie-alahbab-/3267199/fes",
        "city": "Fès"
    },
    {
        "name": "Pharmacie AlAkhawayn",
        "address": "3, rue Ismailia, Mont Fleuri II FES",
        "phone": "05 35 61 47 55",
        "location": "https://www.telecontact.ma/plan-acces/pharmacie-alakhawayn-/3197503/fes",
        "city": "Fès"
    },
    {
        "name": "Pharmacie AlAlia",
        "address": "25, bd Mohamed El Fassi, rte d'Azemour FES",
        "phone": "05 35 60 53 88",
        "location": "https://www.telecontact.ma/plan-acces/pharmacie-alalia-/3265971/fes",
        "city": "Fès"
    },
    {
        "name": "Pharmacie AlAmane",
        "address": "hay Al Massira, résid. AlAman n°1et 2 FES",
        "phone": "05 35 65 51 49",
        "location": "https://www.telecontact.ma/plan-acces/pharmacie-alamane-/3265982/fes",
        "city": "Fès"
    },
    {
        "name": "Pharmacie Haj Bensalem",
        "address": "hay Mikou, rue 3 n°6 FES",
        "phone": "05 35 65 51 87",
        "location": "https://www.telecontact.ma/plan-acces/pharmacie-haj-bensalem-/3268970/fes",
        "city": "Fès"
    },
    {
        "name": "Pharmacie Hamdoun",
        "address": "hay Essalam, rue 17, n°8 Ain Kadouss FES",
        "phone": "05 35 70 33 23",
        "location": "https://www.telecontact.ma/plan-acces/pharmacie-hamdoun-/3047122/fes",
        "city": "Fès"
    },
    {
        "name": "Pharmacie Hameda Benchekroun",
        "address": "29, rue Bab Mansour  FES",
        "phone": "05 35 61 20 50",
        "location": "https://www.telecontact.ma/plan-acces/pharmacie-hameda-benchekroun-/3226935/fes",
        "city": "Fès"
    },
    {
        "name": "Pharmacie Hanane",
        "address": "54 Bis, Jnane Bennis, Bab Khokha, 30000  FES",
        "phone": "05 35 64 91 81",
        "location": "https://www.telecontact.ma/plan-acces/pharmacie-hanane-/1619600/fes",
        "city": "Fès"
    },
    {
        "name": "Pharmacie Haoudi",
        "address": "10, bd Al Karaouiyine, Narjiss A FES",
        "phone": "05 35 64 20 05",
        "location": "https://www.telecontact.ma/plan-acces/pharmacie-haoudi-/3047118/fes",
        "city": "Fès"
    },
    {
        "name": "Pharmacie Hasnaoui",
        "address": "lotiss. Moulay Driss 1, 1, imm. 51, Oued Fés FES",
        "phone": "05 35 70 25 09",
        "location": "https://www.telecontact.ma/plan-acces/pharmacie-hasnaoui-/3275666/fes",
        "city": "Fès"
    },
    {
        "name": "Pharmacie Hay Al Mostakbal",
        "address": "lotiss. Al Moustakbal, lot Pôle Urbaine n°139 Bensouda FES",
        "phone": "05 35 72 91 87",
        "location": "https://www.telecontact.ma/plan-acces/pharmacie-hay-al-mostakbal-/3252870/fes",
        "city": "Fès"
    },
    {
        "name": "Pharmacie Hay AlAnbra",
        "address": "99, lotiss. Al Anbra, Zouagha FES",
        "phone": "05 35 60 85 08",
        "location": "https://www.telecontact.ma/plan-acces/pharmacie-hay-alanbra-/3266028/fes",
        "city": "Fès"
    },
    {
        "name": "Pharmacie Hay Almassira",
        "address": "350, hay Al Massira, q. Bensouda FES",
        "phone": "05 50 08 62 36",
        "location": "https://www.telecontact.ma/plan-acces/pharmacie-hay-almassira-/3197447/fes",
        "city": "Fès"
    },
    {
        "name": "Pharmacie Hay Belkhayat",
        "address": "hay Belkhayat, rue 21, n°1 FES",
        "phone": "05 35 64 58 47",
        "location": "https://www.telecontact.ma/plan-acces/pharmacie-hay-belkhayat-/3045529/fes",
        "city": "Fès"
    },
    {
        "name": "Pharmacie hay Benslimane",
        "address": "hay Benslimane, rue 1, n°72 bis Dhar Lakhmiss FES",
        "phone": "05 35 70 23 30",
        "location": "https://www.telecontact.ma/plan-acces/pharmacie-hay-benslimane-/3045508/fes",
        "city": "Fès"
    },
    {
        "name": "Pharmacie Hay ElHassani",
        "address": "hay Hassani, bloc C1 n°4 Erac Sidi Brahim FES",
        "phone": "05 35 64 40 98",
        "location": "https://www.telecontact.ma/plan-acces/pharmacie-hay-elhassani-/3187438/fes",
        "city": "Fès"
    },
    {
        "name": "Pharmacie Hay Jdid",
        "address": "788, hay Jdid, Zouagha Oulia FES",
        "phone": "05 35 60 53 27",
        "location": "https://www.telecontact.ma/plan-acces/pharmacie-hay-jdid-/3046916/fes",
        "city": "Fès"
    },
    {
        "name": "Pharmacie Hay Laalou",
        "address": "hay Ain Haroun, hay Laalou n°30 FES",
        "phone": "05 35 75 19 78",
        "location": "https://www.telecontact.ma/plan-acces/pharmacie-hay-laalou-/3197445/fes",
        "city": "Fès"
    },
    {
        "name": "Pharmacie Ibn Al Hassan",
        "address": "hay Ain Kadouss  FES",
        "phone": "05 35 75 69 17",
        "location": "https://www.telecontact.ma/plan-acces/pharmacie-ibn-al-hassan-/3226623/fes",
        "city": "Fès"
    },
    {
        "name": "Pharmacie Ibn Al khatib",
        "address": "hay Ain Haroun, rue 202 n°34, 30000  FES",
        "phone": "05 35 64 51 54",
        "location": "https://www.telecontact.ma/plan-acces/pharmacie-ibn-al-khatib-/0303500/fes",
        "city": "Fès"
    },
    {
        "name": "Pharmacie Ibn Batouta",
        "address": "Bab Al Khoukha Jnane Benchrif n°33 FES",
        "phone": "05 35 64 94 58",
        "location": "https://www.telecontact.ma/plan-acces/pharmacie-ibn-batouta-/3045821/fes",
        "city": "Fès"
    },
    {
        "name": "Pharmacie Ibn Baytar",
        "address": "4, rue Senhaja, Jnane suissi FES",
        "phone": "05 35 66 90 35",
        "location": "https://www.telecontact.ma/plan-acces/pharmacie-ibn-baytar-/3197444/fes",
        "city": "Fès"
    },
    {
        "name": "Pharmacie Ibn Haytam",
        "address": "104, bd Kairaouane, Narjiss FES",
        "phone": "05 35 96 04 12",
        "location": "https://www.telecontact.ma/plan-acces/pharmacie-ibn-haytam-/3047104/fes",
        "city": "Fès"
    },
    {
        "name": "Pharmacie Ibn Hazm",
        "address": "290, bd Al Amal, hay Wafae II, rte Sidi Hrazem FES",
        "phone": "05 35 61 62 35",
        "location": "https://www.telecontact.ma/plan-acces/pharmacie-ibn-hazm-/3267208/fes",
        "city": "Fès"
    },
    {
        "name": "Pharmacie Ain Kadouss",
        "address": "hay Ain Kadouss, rue 204 ang. rue 251 FES",
        "phone": "05 35 64 60 94",
        "location": "https://www.telecontact.ma/plan-acces/pharmacie-ain-kadouss-/3046758/fes",
        "city": "Fès"
    },
    {
        "name": "Pharmacie Ain Nokbi",
        "address": "hay Ain Nokbi, Jnane El Morj FES",
        "phone": "05 35 76 22 66",
        "location": "https://www.telecontact.ma/plan-acces/pharmacie-ain-nokbi-/3197504/fes",
        "city": "Fès"
    },
    {
        "name": "Pharmacie Aïn Smen",
        "address": "hay Al Wifaq, bloc B n°172 FES",
        "phone": "05 35 60 24 19",
        "location": "https://www.telecontact.ma/plan-acces/pharmacie-aon-smen-/3045949/fes",
        "city": "Fès"
    },
    {
        "name": "Pharmacie Rte Ain Chkef",
        "address": "333, lotiss. Riad Yasmine, rte Ain Chkef FES",
        "phone": "05 35 96 74 59",
        "location": "https://www.telecontact.ma/plan-acces/pharmacie-rte-ain-chkef-/3291008/fes",
        "city": "Fès"
    },
    {
        "name": "Pharmacie Rte Sidi Harazem",
        "address": "8, rte Sidi Harazem, hay Sania FES",
        "phone": "05 35 61 61 40",
        "location": "https://www.telecontact.ma/plan-acces/pharmacie-rte-sidi-harazem-/3269575/fes",
        "city": "Fès"
    },
    {
        "name": "Pharmacie Ryad Sais",
        "address": "48, hay Riad, Narjis FES",
        "phone": "05 35 61 93 46",
        "location": "https://www.telecontact.ma/plan-acces/pharmacie-ryad-sais-/3275668/fes",
        "city": "Fès"
    },
    {
        "name": "Pharmacie Saada",
        "address": "52, bd Saint Louis, hay Saada 1, 30040  FES",
        "phone": "05 35 60 40 52",
        "location": "https://www.telecontact.ma/plan-acces/pharmacie-saada-/0304500/fes",
        "city": "Fès"
    },
    {
        "name": "Pharmacie Saadi",
        "address": "715, lotiss. Al Karaouiyine, rte Aïn Chkef FES",
        "phone": "05 35 74 98 24",
        "location": "https://www.telecontact.ma/plan-acces/pharmacie-saadi-/3269747/fes",
        "city": "Fès"
    },
    {
        "name": "Pharmacie El Majid",
        "address": "23, bd Al Karaouiyine, Hay Narjiss B, rte de Seffrou FES",
        "phone": "05 35 65 64 47",
        "location": "https://www.telecontact.ma/plan-acces/pharmacie-el-majid-/3047126/fes",
        "city": "Fès"
    },
    {
        "name": "Pharmacie El Mammery",
        "address": "Rte Bensouda , lot Al Madina n°28 FES",
        "phone": "05 35 72 13 54",
        "location": "",
        "city": "Fès"
    },
    {
        "name": "Pharmacie El Mernissi",
        "address": "lotiss. Bel Air, Champs de Course, rtede Meknès FES",
        "phone": "05 35 62 67 67",
        "location": "https://www.telecontact.ma/plan-acces/pharmacie-el-mernissi-/3226637/fes",
        "city": "Fès"
    },
    {
        "name": "Pharmacie El-Inaya",
        "address": "bd Al Karaouiyine, q. Narjiss B, rte de Seffrou FES",
        "phone": "05 35 64 42 73",
        "location": "https://www.telecontact.ma/plan-acces/pharmacie-el-inaya-/3046001/fes",
        "city": "Fès"
    },
    {
        "name": "Pharmacie Elalj",
        "address": "hay Aouinat Al Hajjaj, cplxe socio éducatif FES",
        "phone": "05 35 73 04 35",
        "location": "https://www.telecontact.ma/plan-acces/pharmacie-elalj-/3197481/fes",
        "city": "Fès"
    },
    {
        "name": "Pharmacie ElAmal",
        "address": "bled Hajoui, rue 1 n°4, Ben Debbab, 30000  FES",
        "phone": "05 35 64 55 29",
        "location": "https://www.telecontact.ma/plan-acces/pharmacie-elamal-/1619400/fes",
        "city": "Fès"
    },
    {
        "name": "Pharmacie Elanouar",
        "address": "135, rue Al Fakharine , 30000  FES",
        "phone": "05 35 64 90 77",
        "location": "https://www.telecontact.ma/plan-acces/pharmacie-elanouar-/0302900/fes",
        "city": "Fès"
    },
    {
        "name": "Pharmacie ElAzhar",
        "address": "rue Hadj Mustapha Lahlou, résid. Adarissa II FES",
        "phone": "05 35 60 90 65",
        "location": "https://www.telecontact.ma/plan-acces/pharmacie-elazhar-/3045501/fes",
        "city": "Fès"
    },
    {
        "name": "Pharmacie Elborj",
        "address": "25, hay Dhar Lakhmis  FES",
        "phone": "05 35 64 53 42",
        "location": "https://www.telecontact.ma/plan-acces/pharmacie-elborj-/3197472/fes",
        "city": "Fès"
    },
    {
        "name": "Pharmacie Elfath",
        "address": "18, bd Mohamed Slaoui, imm. Kadmiri, 30000  FES",
        "phone": "05 35 62 30 89",
        "location": "https://www.telecontact.ma/plan-acces/pharmacie-elfath-/0303000/fes",
        "city": "Fès"
    },
    {
        "name": "Pharmacie ElHijazi",
        "address": "17, lotiss. Hatim, Bensouda FES",
        "phone": "05 35 72 97 64",
        "location": "https://www.telecontact.ma/plan-acces/pharmacie-elhijazi-/3267958/fes",
        "city": "Fès"
    },
    {
        "name": "Pharmacie Eliraki",
        "address": "hay Bensouda, rue 3 n°26 FES",
        "phone": "05 35 72 96 47",
        "location": "https://www.telecontact.ma/plan-acces/pharmacie-eliraki-/3047194/fes",
        "city": "Fès"
    },
    {
        "name": "Pharmacie ElKobba",
        "address": "hay Ain Nokbi, Jnane Hjiej,rue 2 n°8 Ain Nokbi FES",
        "phone": "05 35 66 91 59",
        "location": "https://www.telecontact.ma/plan-acces/pharmacie-elkobba-/3049454/fes",
        "city": "Fès"
    },
    {
        "name": "Pharmacie Arrazi",
        "address": "bd Moulay Hicham ang. rte Imouzzer FES",
        "phone": "05 35 64 07 84",
        "location": "https://www.telecontact.ma/plan-acces/pharmacie-arrazi-/3047152/fes",
        "city": "Fès"
    },
    {
        "name": "Pharmacie Arreda",
        "address": "hay Al Merja, bloc A Oued Fès FES",
        "phone": "05 35 72 92 99",
        "location": "https://www.telecontact.ma/plan-acces/pharmacie-arreda-/3269642/fes",
        "city": "Fès"
    },
    {
        "name": "Pharmacie Asanabil",
        "address": "134, rue Sanabil, bloc D imm. Bennani FES",
        "phone": "05 35 60 63 79",
        "location": "https://www.telecontact.ma/plan-acces/pharmacie-asanabil-/3046761/fes",
        "city": "Fès"
    },
    {
        "name": "Pharmacie Asmae",
        "address": "rue Errachad, Narjiss 42 n°122 C FES",
        "phone": "05 35 73 21 93",
        "location": "https://www.telecontact.ma/plan-acces/pharmacie-asmae-/3197471/fes",
        "city": "Fès"
    },
    {
        "name": "Pharmacie Assafae",
        "address": "91, hay Massira II, Benssouda FES",
        "phone": "05 35 72 91 35",
        "location": "https://www.telecontact.ma/plan-acces/pharmacie-assafae-/3267495/fes",
        "city": "Fès"
    },
    {
        "name": "Pharmacie Assafwa",
        "address": "hay Bensouda, lotiss. Laalaj n°24 FES",
        "phone": "05 35 72 91 53",
        "location": "https://www.telecontact.ma/plan-acces/pharmacie-assafwa-/3265953/fes",
        "city": "Fès"
    },
    {
        "name": "Pharmacie Assalamah",
        "address": "7, rue Jordanie, q. Agdal, 30000  FES",
        "phone": "05 35 62 13 00",
        "location": "https://www.telecontact.ma/plan-acces/pharmacie-assalamah-/1781300/fes",
        "city": "Fès"
    },
    {
        "name": "Pharmacie Attouraya",
        "address": "bled Hajoui, rue 12 n°27 FES",
        "phone": "05 35 70 09 39",
        "location": "https://www.telecontact.ma/plan-acces/pharmacie-attouraya-/3197468/fes",
        "city": "Fès"
    },
    {
        "name": "Pharmacie Averroes",
        "address": "9, rue Ibn Hajar, l'Habitat, 30000  FES",
        "phone": "05 35 62 28 90",
        "location": "https://www.telecontact.ma/plan-acces/pharmacie-averroes-/0301600/fes",
        "city": "Fès"
    },
    {
        "name": "Pharmacie Ayoub",
        "address": "hay Griou, n°186 bis bloc A, Zougha Haute FES",
        "phone": "05 35 60 79 97",
        "location": "https://www.telecontact.ma/plan-acces/pharmacie-ayoub-/3227327/fes",
        "city": "Fès"
    },
    {
        "name": "Pharmacie Azzahrae",
        "address": "bd Mohammed VI, hay Lalla Soukaina FES",
        "phone": "05 35 60 04 86",
        "location": "https://www.telecontact.ma/plan-acces/pharmacie-azzahrae-/3269657/fes",
        "city": "Fès"
    },
    {
        "name": "Pharmacie Azzahraouayne",
        "address": "1, Bab Atlas, lot n°41, Zouagha FES",
        "phone": "05 35 65 52 50",
        "location": "https://www.telecontact.ma/plan-acces/pharmacie-azzahraouayne-/3269573/fes",
        "city": "Fès"
    },
    {
        "name": "Pharmacie Azzaytoune",
        "address": "rte Ras El Ma, Bensouda lotiss. Azzaytoune, km. 7 n°8 FES",
        "phone": "05 35 72 68 98",
        "location": "https://www.telecontact.ma/plan-acces/pharmacie-azzaytoune-/3226909/fes",
        "city": "Fès"
    },
    {
        "name": "Pharmacie Azzouzi",
        "address": "47, bd Al Wahda, Narjiss B FES",
        "phone": "05 35 96 04 28",
        "location": "https://www.telecontact.ma/plan-acces/pharmacie-azzouzi-/3046773/fes",
        "city": "Fès"
    },
    {
        "name": "Pharmacie Bab Alandalous",
        "address": "lotiss. Bab Alandalous, n° A363 FES",
        "phone": "05 35 64 77 70",
        "location": "",
        "city": "Fès"
    },
    {
        "name": "Pharmacie Bab Boujloud",
        "address": "pl. Bab Boujloud , 30000  FES",
        "phone": "05 35 63 32 22",
        "location": "https://www.telecontact.ma/plan-acces/pharmacie-bab-boujloud-/0302500/fes",
        "city": "Fès"
    },
    {
        "name": "Pharmacie Bab Elhamra",
        "address": "Bab Ftouh, ras Kalaa n°6, bab Elhamra FES",
        "phone": "05 35 76 26 77",
        "location": "https://www.telecontact.ma/plan-acces/pharmacie-bab-elhamra-/3049431/fes",
        "city": "Fès"
    },
    {
        "name": "Pharmacie Bab Elkhokha",
        "address": "5, lotiss. Najah, Bab El Khokha, 30000  FES",
        "phone": "05 35 64 96 10",
        "location": "https://www.telecontact.ma/plan-acces/pharmacie-bab-elkhokha-/0302100/fes",
        "city": "Fès"
    },
    {
        "name": "Pharmacie Bab Ftouh",
        "address": "137, bd Al Watan, Bab Ftouh, 30000  FES",
        "phone": "05 35 64 91 35",
        "location": "https://www.telecontact.ma/plan-acces/pharmacie-bab-ftouh-/0302200/fes",
        "city": "Fès"
    },
    {
        "name": "Pharmacie Bab Guissa",
        "address": "25, Bab Guissa  FES",
        "phone": "05 35 63 55 84",
        "location": "https://www.telecontact.ma/plan-acces/pharmacie-bab-guissa-/3047147/fes",
        "city": "Fès"
    },
    {
        "name": "Pharmacie Jardin de Tghat",
        "address": "lotiss. Tghat 2, cplxe Al Andalous, n°18 FES",
        "phone": "05 35 70 00 60",
        "location": "https://www.telecontact.ma/plan-acces/pharmacie-jardin-de-tghat-/3264644/fes",
        "city": "Fès"
    },
    {
        "name": "Pharmacie Jbel Taghat",
        "address": "1, lotiss. Tghat 2, Masjid Arrahma FES",
        "phone": "05 35 75 07 88",
        "location": "https://www.telecontact.ma/plan-acces/pharmacie-jbel-taghat-/3049424/fes",
        "city": "Fès"
    },
    {
        "name": "Pharmacie Jnan Fès",
        "address": "15, rue Ibn Batouta  FES",
        "phone": "05 35 65 39 50",
        "location": "https://www.telecontact.ma/plan-acces/pharmacie-jnan-f-s-/3082553/fes",
        "city": "Fès"
    },
    {
        "name": "Pharmacie Jnan Mekouar",
        "address": "93, rue Lamsamda, Jnane Mekouar, sidi Boujida FES",
        "phone": "05 35 71 14 50",
        "location": "https://www.telecontact.ma/plan-acces/pharmacie-jnan-mekouar-/3046709/fes",
        "city": "Fès"
    },
    {
        "name": "Pharmacie Jnane Drader",
        "address": "34, rue Jnane Drader, n°3, Sidi Boujida FES",
        "phone": "05 35 76 36 19",
        "location": "https://www.telecontact.ma/plan-acces/pharmacie-jnane-drader-/3119155/fes",
        "city": "Fès"
    },
    {
        "name": "Pharmacie Jnane Kadiri",
        "address": "Bab Al Khoukha,Jnane Kadiri rue 45 n°25 FES",
        "phone": "05 35 76 36 64",
        "location": "https://www.telecontact.ma/plan-acces/pharmacie-jnane-kadiri-/3197440/fes",
        "city": "Fès"
    },
    {
        "name": "Pharmacie Kamal",
        "address": "hay Sehb El Ward, bled Saadani, rue 8 n°12 Bab Ftouh FES",
        "phone": "05 35 76 20 65",
        "location": "https://www.telecontact.ma/plan-acces/pharmacie-kamal-/3049404/fes",
        "city": "Fès"
    },
    {
        "name": "Pharmacie Kandousi",
        "address": "132, lotiss. El Farah, q. Bensouda FES",
        "phone": "05 35 72 71 95",
        "location": "https://www.telecontact.ma/plan-acces/pharmacie-kandousi-/3265984/fes",
        "city": "Fès"
    },
    {
        "name": "Pharmacie Karaouine",
        "address": "62, bd Khalid Bnou Loualid, derb Kristiani, Bouremana FES",
        "phone": "05 35 64 07 49",
        "location": "https://www.telecontact.ma/plan-acces/pharmacie-karaouine-/3045481/fes",
        "city": "Fès"
    },
    {
        "name": "Pharmacie l'Amitié",
        "address": "232, bd Mohamed El Fassi, hay ElAdarissa FES",
        "phone": "05 35 60 91 39",
        "location": "https://www.telecontact.ma/plan-acces/pharmacie-l-amiti-/3045485/fes",
        "city": "Fès"
    },
    {
        "name": "Pharmacie l'Avenir",
        "address": "122, lotiss. Taoufik, Al Marjat FES",
        "phone": "05 35 72 82 99",
        "location": "https://www.telecontact.ma/plan-acces/pharmacie-l-avenir-/3279178/fes",
        "city": "Fès"
    },
    {
        "name": "Pharmacie L'Entente",
        "address": "42, bd Moulay Rachid, rte Sefrou FES",
        "phone": "05 35 65 81 31",
        "location": "https://www.telecontact.ma/plan-acces/pharmacie-l-entente-/3270531/fes",
        "city": "Fès"
    },
    {
        "name": "Pharmacie L'iris",
        "address": "19, rue Benzert  FES",
        "phone": "05 35 74 80 19",
        "location": "https://www.telecontact.ma/plan-acces/pharmacie-l-iris-/3045930/fes",
        "city": "Fès"
    },
    {
        "name": "Pharmacie L'Opera",
        "address": "rue Ifrane, résid. Al Khalil Atlas FES",
        "phone": "05 35 96 05 03",
        "location": "https://www.telecontact.ma/plan-acces/pharmacie-l-opera-/3119752/fes",
        "city": "Fès"
    },
    {
        "name": "Pharmacie l'Université",
        "address": "79 Bis, hay Chouhada, Sidi Brahim FES",
        "phone": "05 35 73 25 59",
        "location": "https://www.telecontact.ma/plan-acces/pharmacie-l-universit-/3047179/fes",
        "city": "Fès"
    },
    {
        "name": "Pharmacie La Baraka",
        "address": "15, lotiss. Firdaouss, hay Adarissa II FES",
        "phone": "05 35 74 87 66",
        "location": "https://www.telecontact.ma/plan-acces/pharmacie-la-baraka-/3045676/fes",
        "city": "Fès"
    },
    {
        "name": "Pharmacie La Bonte",
        "address": "hay Tarik 1, lot 20 n°2 et 3 FES",
        "phone": "05 35 61 06 22",
        "location": "https://www.telecontact.ma/plan-acces/pharmacie-la-bonte-/3268526/fes",
        "city": "Fès"
    },
    {
        "name": "Pharmacie la Commune  Nouvelle",
        "address": "quartier Champs de course, lotiss. Prestigia n°13 FES",
        "phone": "05 35 93 11 57",
        "location": "https://www.telecontact.ma/plan-acces/pharmacie-la-commune-nouvelle-/9010418/fes",
        "city": "Fès"
    },
    {
        "name": "Pharmacie La Criée",
        "address": "11, hay Al Amane, Bensouda FES",
        "phone": "05 35 65 53 27",
        "location": "https://www.telecontact.ma/plan-acces/pharmacie-la-cri-e-/3227375/fes",
        "city": "Fès"
    },
    {
        "name": "Pharmacie la Famille",
        "address": "119, rue Chenguit, Zohour 2 Mont Fleuri FES",
        "phone": "05 35 61 01 33",
        "location": "https://www.telecontact.ma/plan-acces/pharmacie-la-famille-/3049554/fes",
        "city": "Fès"
    },
    {
        "name": "Pharmacie Bouslama",
        "address": "lotiss. Lmseffer, résid. Bahya, rte d'Imouzzer FES",
        "phone": "05 35 60 81 06",
        "location": "https://www.telecontact.ma/plan-acces/pharmacie-bouslama-/3267202/fes",
        "city": "Fès"
    },
    {
        "name": "Pharmacie Bouslikhane",
        "address": "160, hay Al Wifaq, rte Ain Smen FES",
        "phone": "05 35 60 45 25",
        "location": "https://www.telecontact.ma/plan-acces/pharmacie-bouslikhane-/3046770/fes",
        "city": "Fès"
    },
    {
        "name": "Pharmacie Boutouil",
        "address": "46, derb Btatha , Boutouil FES",
        "phone": "05 35 65 28 45",
        "location": "https://www.telecontact.ma/plan-acces/pharmacie-boutouil-/3267223/fes",
        "city": "Fès"
    },
    {
        "name": "Pharmacie Bouziane",
        "address": "40, Jnane Benkirane, rue 1 Sidi Boujida FES",
        "phone": "05 35 76 48 87",
        "location": "https://www.telecontact.ma/plan-acces/pharmacie-bouziane-/3045960/fes",
        "city": "Fès"
    },
    {
        "name": "Pharmacie Bouzoubaâ",
        "address": "86, hay Lalla Soukaina  FES",
        "phone": "05 35 74 81 70",
        "location": "https://www.telecontact.ma/plan-acces/pharmacie-bouzouba-/3097811/fes",
        "city": "Fès"
    },
    {
        "name": "Pharmacie bvd du Golan",
        "address": "3, rue M'diq, bd Al Joulane FES",
        "phone": "05 35 73 31 09",
        "location": "https://www.telecontact.ma/plan-acces/pharmacie-bvd-du-golan-/3225376/fes",
        "city": "Fès"
    },
    {
        "name": "Pharmacie Bvd Mohamed VI",
        "address": "70, lotiss. Mohammedia  FES",
        "phone": "05 35 60 41 35",
        "location": "https://www.telecontact.ma/plan-acces/pharmacie-bvd-mohamed-vi-/3267964/fes",
        "city": "Fès"
    },
    {
        "name": "Pharmacie centrale",
        "address": "61, bd Mohammed V , 30000  FES",
        "phone": "05 35 62 25 04",
        "location": "https://www.telecontact.ma/plan-acces/pharmacie-centrale-/0302700/fes",
        "city": "Fès"
    },
    {
        "name": "Pharmacie Champs de Course",
        "address": "7, hay Al Amal, champs de Course FES",
        "phone": "05 35 65 23 38",
        "location": "https://www.telecontact.ma/plan-acces/pharmacie-chands-de-course-/3279179/fes",
        "city": "Fès"
    },
    {
        "name": "Pharmacie Chifae",
        "address": "bd des F.a.r., rte de Meknès, 30000  FES",
        "phone": "05 35 65 05 44",
        "location": "https://www.telecontact.ma/plan-acces/pharmacie-chifae-/1781100/fes",
        "city": "Fès"
    },
    {
        "name": "Pharmacie Chifae Arrahmane",
        "address": "rte de Meknès, lotiss. Riad Laimoun n°165 FES",
        "phone": "05 35 64 77 18",
        "location": "https://www.telecontact.ma/plan-acces/pharmacie-chifae-arrahmane-/3279177/fes",
        "city": "Fès"
    },
    {
        "name": "Pharmacie Chraibi",
        "address": "hay Hassani, rue 5, n°28, Ben Debbab FES",
        "phone": "06 55 48 95 70",
        "location": "https://www.telecontact.ma/plan-acces/pharmacie-chraibi-/3045944/fes",
        "city": "Fès"
    },
    {
        "name": "Pharmacie Chu Hassan II",
        "address": "rte de Sefrou  FES",
        "phone": "05 35 61 58 99",
        "location": "https://www.telecontact.ma/plan-acces/pharmacie-chu-hassan-ii-/3222052/fes",
        "city": "Fès"
    },
    {
        "name": "Pharmacie Complexe Sportif",
        "address": "28, bd Arrahma, Nargiss D FES",
        "phone": "05 35 73 28 73",
        "location": "https://www.telecontact.ma/plan-acces/pharmacie-complexe-sportif-/3045679/fes",
        "city": "Fès"
    },
    {
        "name": "Pharmacie Conseil",
        "address": "86, bd Moulay Rachid, rte de Seffrou FES",
        "phone": "05 35 61 91 62",
        "location": "https://www.telecontact.ma/plan-acces/pharmacie-conseil-/3047049/fes",
        "city": "Fès"
    },
    {
        "name": "Pharmacie Cotef",
        "address": "4, lotiss. El Fath, Erac, Sidi Brahim FES",
        "phone": "05 35 73 04 73",
        "location": "https://www.telecontact.ma/plan-acces/pharmacie-cotef-/3268973/fes",
        "city": "Fès"
    },
    {
        "name": "Pharmacie Dalia",
        "address": "569, lotiss. Al Moustakbal, hay AlMassira FES",
        "phone": "05 35 72 69 25",
        "location": "https://www.telecontact.ma/plan-acces/pharmacie-dalia-/3267558/fes",
        "city": "Fès"
    },
    {
        "name": "Pharmacie Dar Dmana",
        "address": "Bab Al Khoukha, Hafrat Bennis FES",
        "phone": "05 35 63 07 40",
        "location": "https://www.telecontact.ma/plan-acces/pharmacie-dar-dmana-/3045990/fes",
        "city": "Fès"
    },
    {
        "name": "Pharmacie Dar Es-Salam",
        "address": "bd Mohammed VI, rue 2, résid. El Mahmi, Zouagha Oulya FES",
        "phone": "05 35 60 08 60",
        "location": "https://www.telecontact.ma/plan-acces/pharmacie-dar-es-salam-/3253234/fes",
        "city": "Fès"
    },
    {
        "name": "Pharmacie Dayaa",
        "address": "lotiss. Dayaa , rue 3 n°4 bis, Ain Kadousse FES",
        "phone": "05 35 75 50 39",
        "location": "https://www.telecontact.ma/plan-acces/pharmacie-dayaa-/3227177/fes",
        "city": "Fès"
    },
    {
        "name": "Pharmacie Mekka",
        "address": "736, hay Al Massira, Bensouda FES",
        "phone": "05 35 72 81 12",
        "location": "https://www.telecontact.ma/plan-acces/pharmacie-mekka-/3197437/fes",
        "city": "Fès"
    },
    {
        "name": "Pharmacie Mekouar",
        "address": "35, Pl. Bir Anzarane, rte Imouzer FES",
        "phone": "05 35 64 01 72",
        "location": "https://www.telecontact.ma/plan-acces/pharmacie-mekouar-/3082522/fes",
        "city": "Fès"
    },
    {
        "name": "Pharmacie Merja",
        "address": "hay Al Merja, rue 1 n°27 FES",
        "phone": "05 35 72 69 99",
        "location": "https://www.telecontact.ma/plan-acces/pharmacie-merja-/3197435/fes",
        "city": "Fès"
    },
    {
        "name": "Pharmacie Mil Roses",
        "address": "bd Prince Moulay Abdallah, km 2 route d'Imouzzer FES",
        "phone": "05 35 60 43 08",
        "location": "https://www.telecontact.ma/plan-acces/pharmacie-mil-roses-/3045962/fes",
        "city": "Fès"
    },
    {
        "name": "Pharmacie Mimosa",
        "address": "20, bd Prince Héritier  FES",
        "phone": "05 35 62 33 76",
        "location": "https://www.telecontact.ma/plan-acces/pharmacie-mimosa-/3047137/fes",
        "city": "Fès"
    },
    {
        "name": "Pharmacie Mly Abdellah",
        "address": "143, rue Grande rue, hay moulay Abdallah, Fès Jdid FES",
        "phone": "05 35 62 31 88",
        "location": "https://www.telecontact.ma/plan-acces/pharmacie-mly-abdellah-/3197434/fes",
        "city": "Fès"
    },
    {
        "name": "Pharmacie Mly Idriss",
        "address": "lotiss. Kenza, av. Mly Kamel FES",
        "phone": "05 35 65 10 50",
        "location": "https://www.telecontact.ma/plan-acces/pharmacie-mly-idriss-/3197429/fes",
        "city": "Fès"
    },
    {
        "name": "Pharmacie Mly M'Barek",
        "address": "hay Ain Nokbi, blad Sfira, bloc 16 rue 13 FES",
        "phone": "05 35 63 07 87",
        "location": "https://www.telecontact.ma/plan-acces/pharmacie-mly-m-barek-/3097390/fes",
        "city": "Fès"
    },
    {
        "name": "Pharmacie Mly Slimane",
        "address": "9, bd Saint Louis  FES",
        "phone": "05 35 57 60 08",
        "location": "https://www.telecontact.ma/plan-acces/pharmacie-mly-slimane-/3197418/fes",
        "city": "Fès"
    },
    {
        "name": "Pharmacie Mont Fleuri",
        "address": "103, bd Karama, Mont Fleuri 1-rte de Sefrou, 30000  FES",
        "phone": "05 35 64 40 06",
        "location": "https://www.telecontact.ma/plan-acces/pharmacie-mont-fleuri-/1622900/fes",
        "city": "Fès"
    },
    {
        "name": "Pharmacie Mont Fleuri 2",
        "address": "rue Alexandrie, rue Managua n°21, Mont Fleuri 2 FES",
        "phone": "05 35 61 54 92",
        "location": "https://www.telecontact.ma/plan-acces/pharmacie-mont-fleuri-2-/3265980/fes",
        "city": "Fès"
    },
    {
        "name": "Pharmacie Mouene",
        "address": "hay Msallah, lotiss. Andalous FES",
        "phone": "05 35 71 17 48",
        "location": "https://www.telecontact.ma/plan-acces/pharmacie-mouene-/3267487/fes",
        "city": "Fès"
    },
    {
        "name": "Pharmacie Moulay ElKamel",
        "address": "bd Prince Héritier, résid. Mly ElKamel, Champ de Course FES",
        "phone": "05 35 62 66 36",
        "location": "https://www.telecontact.ma/plan-acces/pharmacie-moulay-elkamel-/3045719/fes",
        "city": "Fès"
    },
    {
        "name": "Pharmacie Mounad",
        "address": "hay Sehb El Ward, rue 1 n°17 bis, blad Raiss FES",
        "phone": "05 35 76 35 03",
        "location": "https://www.telecontact.ma/plan-acces/pharmacie-mounad-/3197415/fes",
        "city": "Fès"
    },
    {
        "name": "Pharmacie Mounia",
        "address": "100, lotiss. Moulay Driss 2, Oued Fes FES",
        "phone": "05 35 70 30 78",
        "location": "https://www.telecontact.ma/plan-acces/pharmacie-mounia-/3271312/fes",
        "city": "Fès"
    },
    {
        "name": "Pharmacie Mourchid",
        "address": "2, rue Tadhia, Narjiss C, rte de Sefrou FES",
        "phone": "05 35 61 48 28",
        "location": "https://www.telecontact.ma/plan-acces/pharmacie-mourchid-/3265951/fes",
        "city": "Fès"
    },
    {
        "name": "Pharmacie Nahid",
        "address": "hay Msallah, rue 10 n°10 blad Mastari FES",
        "phone": "05 35 63 06 81",
        "location": "https://www.telecontact.ma/plan-acces/pharmacie-nahid-/3269644/fes",
        "city": "Fès"
    },
    {
        "name": "Pharmacie Najmi",
        "address": "60, rue Assiham, hay Hassani rte Aïn Chkef FES",
        "phone": "05 35 61 22 41",
        "location": "https://www.telecontact.ma/plan-acces/pharmacie-najmi-/3197413/fes",
        "city": "Fès"
    },
    {
        "name": "Pharmacie Najoua",
        "address": "hay Mikou, rue 9 n°1 FES",
        "phone": "05 35 65 56 48",
        "location": "https://www.telecontact.ma/plan-acces/pharmacie-najoua-/3268523/fes",
        "city": "Fès"
    },
    {
        "name": "Pharmacie Narjiss",
        "address": "hay Sidi Brahim, bloc 34, B1 Erac FES",
        "phone": "05 35 64 37 34",
        "location": "https://www.telecontact.ma/plan-acces/pharmacie-narjiss-/3045526/fes",
        "city": "Fès"
    },
    {
        "name": "Pharmacie Souissi",
        "address": "rte de Sefrou, km 5 Domaine Ben Abdellah FES",
        "phone": "05 35 61 77 71",
        "location": "https://www.telecontact.ma/plan-acces/pharmacie-souissi-/3265917/fes",
        "city": "Fès"
    },
    {
        "name": "Pharmacie Soulaimani",
        "address": "46, lotiss. Charii, q. Bensouda FES",
        "phone": "05 35 72 66 60",
        "location": "https://www.telecontact.ma/plan-acces/pharmacie-soulaimani-/3197362/fes",
        "city": "Fès"
    },
    {
        "name": "Pharmacie de Fès",
        "address": "Jnane Lahraichi, rue 8 n°33, Ben Debbab, 30000  FES",
        "phone": "05 35 64 57 44",
        "location": "https://www.telecontact.ma/plan-acces/pharmacie-de-f-s-/0303200/fes",
        "city": "Fès"
    },
    {
        "name": "Pharmacie de France",
        "address": "46, bd Hassan II , 30000  FES",
        "phone": "05 35 62 23 09",
        "location": "https://www.telecontact.ma/plan-acces/pharmacie-de-france-/0303400/fes",
        "city": "Fès"
    },
    {
        "name": "Pharmacie de l'Atlas",
        "address": "5, pl. Atlas , 30000  FES",
        "phone": "05 35 64 18 28",
        "location": "https://www.telecontact.ma/plan-acces/pharmacie-de-l-atlas-/0302000/fes",
        "city": "Fès"
    },
    {
        "name": "Pharmacie de l'Hôpital",
        "address": "2, rue Mohamed Diouri, v.n. FES",
        "phone": "05 35 62 64 68",
        "location": "https://www.telecontact.ma/plan-acces/pharmacie-de-l-h-pital-/3045694/fes",
        "city": "Fès"
    },
    {
        "name": "Pharmacie Soundous",
        "address": "lotiss. Oued Fès, rue 23 FES",
        "phone": "05 35 75 24 00",
        "location": "https://www.telecontact.ma/plan-acces/pharmacie-soundous-/3227160/fes",
        "city": "Fès"
    },
    {
        "name": "Pharmacie Sounni",
        "address": "hay Al Adarissa, l'Erac Bloc 17 n°13, , rte Ain Chkef FES",
        "phone": "05 35 60 37 74",
        "location": "https://www.telecontact.ma/plan-acces/pharmacie-sounni-/3049540/fes",
        "city": "Fès"
    },
    {
        "name": "Pharmacie Tadamoune",
        "address": "hay Sahrij Gnaoua, bloc 30 B n°54, Elmenzeh FES",
        "phone": "05 35 64 92 15",
        "location": "https://www.telecontact.ma/plan-acces/pharmacie-tadamoune-/3197359/fes",
        "city": "Fès"
    },
    {
        "name": "Pharmacie Tadawi Fès Sais",
        "address": "Douar Oulad Lakhdar , Oulad Tayeb FES",
        "phone": "05 35 96 32 26",
        "location": "https://www.telecontact.ma/plan-acces/pharmacie-tadawi-f-s-sais-/3252677/fes",
        "city": "Fès"
    },
    {
        "name": "Pharmacie Taha",
        "address": "242, lotiss. Al Hadika, hay Tghat Ain Kadouss FES",
        "phone": "05 35 70 18 69",
        "location": "https://www.telecontact.ma/plan-acces/pharmacie-taha-/3265927/fes",
        "city": "Fès"
    },
    {
        "name": "Pharmacie Taiba",
        "address": "20, lotiss. Fadila, rte Ain Chkef FES",
        "phone": "05 35 60 77 77",
        "location": "https://www.telecontact.ma/plan-acces/pharmacie-taiba-/3271314/fes",
        "city": "Fès"
    },
    {
        "name": "Pharmacie Tajmouati",
        "address": "5, rue Amman, rte Aïn Chkef FES",
        "phone": "05 35 60 00 48",
        "location": "https://www.telecontact.ma/plan-acces/pharmacie-tajmouati-/3197356/fes",
        "city": "Fès"
    },
    {
        "name": "Pharmacie Talbi",
        "address": "10, bd Arrahma, Narjiss D FES",
        "phone": "05 35 73 33 09",
        "location": "https://www.telecontact.ma/plan-acces/pharmacie-talbi-/3045917/fes",
        "city": "Fès"
    },
    {
        "name": "Pharmacie Tariq",
        "address": "86, hay Tarik 2, rte Bensouda FES",
        "phone": "05 35 60 21 49",
        "location": "https://www.telecontact.ma/plan-acces/pharmacie-tariq-/3047110/fes",
        "city": "Fès"
    },
    {
        "name": "Pharmacie Tazi",
        "address": "rte de Meknès, lotiss. Lahbabi n°11 FES",
        "phone": "05 35 93 16 82",
        "location": "https://www.telecontact.ma/plan-acces/pharmacie-tazi-/3197352/fes",
        "city": "Fès"
    },
    {
        "name": "Pharmacie Technologie",
        "address": "347, lotiss. Al Karaouiyine, rte Ain Chkef FES",
        "phone": "05 35 72 73 99",
        "location": "https://www.telecontact.ma/plan-acces/pharmacie-technologie-/3266026/fes",
        "city": "Fès"
    },
    {
        "name": "Pharmacie Touzani",
        "address": "rue Abdallah Guennoun, Tarik 1 FES",
        "phone": "05 35 61 22 21",
        "location": "https://www.telecontact.ma/plan-acces/pharmacie-touzani-/3197348/fes",
        "city": "Fès"
    },
    {
        "name": "Pharmacie Andalous",
        "address": "hay Sidi Boujida, Jnane Slaoui n°4, 30000  FES",
        "phone": "05 35 64 91 82",
        "location": "https://www.telecontact.ma/plan-acces/pharmacie-andalous-/0301900/fes",
        "city": "Fès"
    },
    {
        "name": "Pharmacie Annamae",
        "address": "354, lotiss. Ennamae, q. Bensouda FES",
        "phone": "05 34 71 28 13",
        "location": "https://www.telecontact.ma/plan-acces/pharmacie-annamae-/3197480/fes",
        "city": "Fès"
    },
    {
        "name": "Pharmacie Anoual",
        "address": "hay Ain Kadouss, Nouveau Sect. bloc F n°1 FES",
        "phone": "05 35 70 13 02",
        "location": "https://www.telecontact.ma/plan-acces/pharmacie-anoual-/3266037/fes",
        "city": "Fès"
    },
    {
        "name": "Pharmacie Aouinat ElHajjaj",
        "address": "hay Aouinat Al Hajjaj, lot A4 n°434 FES",
        "phone": "05 35 65 65 20",
        "location": "https://www.telecontact.ma/plan-acces/pharmacie-aouinat-elhajjaj-/3197474/fes",
        "city": "Fès"
    },
    {
        "name": "Pharmacie Arrabie",
        "address": "4, lotiss. El Farah, q. Bensouda FES",
        "phone": "05 35 72 63 40",
        "location": "https://www.telecontact.ma/plan-acces/pharmacie-arrabie-/3267537/fes",
        "city": "Fès"
    },
    {
        "name": "Pharmacie Arrachad",
        "address": "hay Griou, bloc C n°42 FES",
        "phone": "05 35 74 80 55",
        "location": "https://www.telecontact.ma/plan-acces/pharmacie-arrachad-/3271255/fes",
        "city": "Fès"
    },
    {
        "name": "Pharmacie Arrahma",
        "address": "hay Dhar Lakhmis, bloc 3 n°48, l'habitat FES",
        "phone": "05 35 64 53 91",
        "location": "https://www.telecontact.ma/plan-acces/pharmacie-arrahma-/3045504/fes",
        "city": "Fès"
    },
    {
        "name": "Pharmacie Arrajae",
        "address": "hay Al Merja, rue 23 n°1 FES",
        "phone": "05 35 72 61 62",
        "location": "https://www.telecontact.ma/plan-acces/pharmacie-arrajae-/3275665/fes",
        "city": "Fès"
    },
    {
        "name": "Pharmacie Arrayhane",
        "address": "rte de Sefrou, lot. Arrayhane 2, imm. 7 n°16, 30060  FES",
        "phone": "05 35 76 55 06",
        "location": "https://www.telecontact.ma/plan-acces/pharmacie-arrayhane-/3339121/fes",
        "city": "Fès"
    },
    {
        "name": "Pharmacie Nassim",
        "address": "hay Nassim, rue 6 n°3, Bensouda FES",
        "phone": "05 35 65 54 28",
        "location": "https://www.telecontact.ma/plan-acces/pharmacie-nassim-/3227304/fes",
        "city": "Fès"
    },
    {
        "name": "Pharmacie Nationale",
        "address": "42, rue Talaa Séghira , 30000  FES",
        "phone": "05 35 63 43 13",
        "location": "https://www.telecontact.ma/plan-acces/pharmacie-nationale-/0304000/fes",
        "city": "Fès"
    },
    {
        "name": "Pharmacie Niama",
        "address": "hay Al Amane, AlMassira Bensouda FES",
        "phone": "05 35 72 91 32",
        "location": "https://www.telecontact.ma/plan-acces/pharmacie-niama-/3267226/fes",
        "city": "Fès"
    },
    {
        "name": "Pharmacie Benkirane",
        "address": "83, lotiss. Dayaa 2, hay Tghat FES",
        "phone": "05 35 70 10 97",
        "location": "https://www.telecontact.ma/plan-acces/pharmacie-benkirane-/3264803/fes",
        "city": "Fès"
    },
    {
        "name": "Pharmacie Benmimoun",
        "address": "60, rue Annasr, rte Aïn Smen, hay Riad FES",
        "phone": "05 35 61 08 48",
        "location": "https://www.telecontact.ma/plan-acces/pharmacie-benmimoun-/3045670/fes",
        "city": "Fès"
    },
    {
        "name": "Pharmacie Bennani",
        "address": "hay Tarik 1, rue 4 n°73 FES",
        "phone": "05 35 60 87 88",
        "location": "https://www.telecontact.ma/plan-acces/pharmacie-bennani-/3045685/fes",
        "city": "Fès"
    },
    {
        "name": "Pharmacie Benouna",
        "address": "273, rue Ibn Derraj Sebti, hay Badr FES",
        "phone": "05 35 60 47 74",
        "location": "https://www.telecontact.ma/plan-acces/pharmacie-benouna-/3227341/fes",
        "city": "Fès"
    },
    {
        "name": "Pharmacie Bensouda",
        "address": "3, hay Msallah  FES",
        "phone": "05 35 72 65 63",
        "location": "https://www.telecontact.ma/plan-acces/pharmacie-bensouda-/3049425/fes",
        "city": "Fès"
    },
    {
        "name": "Pharmacie Berrada",
        "address": "212, hay Mohammadi, Ain Kadouss FES",
        "phone": "05 35 63 10 68",
        "location": "https://www.telecontact.ma/plan-acces/pharmacie-berrada-/3045979/fes",
        "city": "Fès"
    },
    {
        "name": "Pharmacie Bismillah",
        "address": "674, hay Al Wahda, q. Bensouda FES",
        "phone": "05 35 65 56 65",
        "location": "https://www.telecontact.ma/plan-acces/pharmacie-bismillah-/3045948/fes",
        "city": "Fès"
    },
    {
        "name": "Pharmacie Blad Skallia",
        "address": "hay Sehb El Ward, bled Skallia rue 4 n°1 FES",
        "phone": "05 35 76 42 71",
        "location": "https://www.telecontact.ma/plan-acces/pharmacie-blad-skallia-/3197479/fes",
        "city": "Fès"
    },
    {
        "name": "Pharmacie Bled Tahiriyine",
        "address": "bled Ben Makhlouf, rue 1 n°46 FES",
        "phone": "05 35 63 06 82",
        "location": "https://www.telecontact.ma/plan-acces/pharmacie-bled-tahiriyine-/3269646/fes",
        "city": "Fès"
    },
    {
        "name": "Pharmacie Boughafer",
        "address": "29, rue Boughafer, Narjiss A FES",
        "phone": "05 35 73 23 36",
        "location": "https://www.telecontact.ma/plan-acces/pharmacie-boughafer-/3197475/fes",
        "city": "Fès"
    },
    {
        "name": "Pharmacie Boukhari",
        "address": "lotiss. Oued Fès, rue 16 n°27 FES",
        "phone": "05 35 75 49 23",
        "location": "https://www.telecontact.ma/plan-acces/pharmacie-boukhari-/3045867/fes",
        "city": "Fès"
    }
]