[
  {
    "name": "Pharmacie Nougd",
    "address": "36, bd. Abdelkrim El Khattabi , hay Nougd GUERCIF",
    "phone": "05 35 20 01 15",
    "location": "",
    "city": "Guercif"
  },
  {
    "name": "Pharmacie Rochdi",
    "address": "av Itihad  GUERCIF",
    "phone": "05 35 67 58 57",
    "location": "https://www.telecontact.ma/plan-acces/pharmacie-rochdi-/3065860/guercif",
    "city": "Guercif"
  },
  {
    "name": "Pharmacie Tarik",
    "address": "89, bd Mohammed V , 35100  GUERCIF",
    "phone": "05 35 67 61 60",
    "location": "https://www.telecontact.ma/plan-acces/pharmacie-tarik-/1781600/guercif",
    "city": "Guercif"
  },
  {
    "name": "Pharmacie AÃ¯n Zoura",
    "address": "104, av Mly Youssef  GUERCIF",
    "phone": "05 35 67 54 50",
    "location": "https://www.telecontact.ma/plan-acces/pharmacie-aon-zoura-/3067415/guercif",
    "city": "Guercif"
  },
  {
    "name": "Pharmacie AlBaladia",
    "address": "bd Allal Ben Abdellah  GUERCIF",
    "phone": "05 35 20 09 09",
    "location": "https://www.telecontact.ma/plan-acces/pharmacie-albaladia-/3067457/guercif",
    "city": "Guercif"
  },
  {
    "name": "Pharmacie Centrale",
    "address": "bd. Mohammed V ang. av. Al Ittihad GUERCIF",
    "phone": "05 35 67 50 56",
    "location": "https://www.telecontact.ma/plan-acces/pharmacie-centrale-/3067433/guercif",
    "city": "Guercif"
  },
  {
    "name": "Pharmacie Chifae",
    "address": "11, rue Melwiya  GUERCIF",
    "phone": "05 35 67 54 78",
    "location": "https://www.telecontact.ma/plan-acces/pharmacie-chifae-/3197432/guercif",
    "city": "Guercif"
  },
  {
    "name": "Pharmacie Chouiber",
    "address": "574, hay Chouiber II  GUERCIF",
    "phone": "05 35 20 09 61",
    "location": "https://www.telecontact.ma/plan-acces/pharmacie-chouiber-/3197431/guercif",
    "city": "Guercif"
  },
  {
    "name": "Pharmacie Guercif",
    "address": "11, av Mly Youssef  GUERCIF",
    "phone": "05 35 67 62 10",
    "location": "https://www.telecontact.ma/plan-acces/pharmacie-guercif-/3067410/guercif",
    "city": "Guercif"
  },
  {
    "name": "Pharmacie Houara",
    "address": "218, bd. My Youssef , rte Oujda GUERCIF",
    "phone": "05 35 20 06 94",
    "location": "https://www.telecontact.ma/plan-acces/pharmacie-houara-/3126619/guercif",
    "city": "Guercif"
  },
  {
    "name": "Pharmacie Ibnou Sina",
    "address": "100, Av. Mly Hassan  GUERCIF",
    "phone": "05 35 67 50 55",
    "location": "https://www.telecontact.ma/plan-acces/pharmacie-ibnou-sina-/3067412/guercif",
    "city": "Guercif"
  },
  {
    "name": "Pharmacie La Clinique",
    "address": "3 Bis, av. Abdelkrim El Khattabi , hay Nougd, 35100  GUERCIF",
    "phone": "05 35 67 51 44",
    "location": "",
    "city": "Guercif"
  },
  {
    "name": "Pharmacie Malwiya",
    "address": "av Mohamed V  GUERCIF",
    "phone": "05 35 67 56 02",
    "location": "https://www.telecontact.ma/plan-acces/pharmacie-malwiya-/3222499/guercif",
    "city": "Guercif"
  }
]
