[
    {
        "name": "Pharmacie Razi",
        "address": "57 Bis, cité Alamal  KHENIFRA",
        "phone": "05 35 58 73 44",
        "location": "",
        "city": "Khénifra"
    },
    {
        "name": "Pharmacie Tighessaline",
        "address": "bd Mohammed V , Tighessaline KHENIFRA",
        "phone": "05 35 59 60 06",
        "location": "",
        "city": "Khénifra"
    },
    {
        "name": "Pharmacie Touhami",
        "address": "33, quartier Ikhamen  KHENIFRA",
        "phone": "05 35 58 78 00",
        "location": "https://www.telecontact.ma/plan-acces/pharmacie-touhami-/3197683/khenifra",
        "city": "Khénifra"
    },
    {
        "name": "Pharmacie Tounifit",
        "address": "7, place Marche Verte , Tounifit KHENIFRA",
        "phone": "05 35 58 06 22",
        "location": "",
        "city": "Khénifra"
    },
    {
        "name": "Pharmacie Walili",
        "address": "hay El Fath, rue 1 n°238 bis KHENIFRA",
        "phone": "05 35 38 37 46",
        "location": "",
        "city": "Khénifra"
    },
    {
        "name": "Pharmacie Yasmina",
        "address": "2, bd principal , Ait Ishak KHENIFRA",
        "phone": "05 35 39 90 70",
        "location": "",
        "city": "Khénifra"
    },
    {
        "name": "Pharmacie Zayan",
        "address": "3, bd. Mohamed V , 54000  KHENIFRA",
        "phone": "05 35 58 60 41",
        "location": "https://www.telecontact.ma/plan-acces/pharmacie-zayan-/0309200/khenifra",
        "city": "Khénifra"
    },
    {
        "name": "Pharmacie 8 Mars",
        "address": "Cité Pam , rue 1 n°20, 54000  KHENIFRA",
        "phone": "05 35 58 63 95",
        "location": "https://www.telecontact.ma/plan-acces/pharmacie-8-mars-/1783100/khenifra",
        "city": "Khénifra"
    },
    {
        "name": "Pharmacie Abouchane",
        "address": "64 Bis, Rue 20 Aôut  KHENIFRA",
        "phone": "05 35 58 68 58",
        "location": "https://www.telecontact.ma/plan-acces/pharmacie-abouchane-/3197545/khenifra",
        "city": "Khénifra"
    },
    {
        "name": "Pharmacie Achbaro",
        "address": "hay Ennassim , bloc 1 n°13 KHENIFRA",
        "phone": "05 35 58 88 67",
        "location": "https://www.telecontact.ma/plan-acces/pharmacie-achbaro-/3263677/khenifra",
        "city": "Khénifra"
    },
    {
        "name": "Pharmacie Afilal",
        "address": "Centre Tighessaline  KHENIFRA",
        "phone": "05 35 38 47 51",
        "location": "https://www.telecontact.ma/plan-acces/pharmacie-afilal-/3197546/khenifra",
        "city": "Khénifra"
    },
    {
        "name": "Pharmacie Aguelman Azgza",
        "address": "2, bd Zerktouni  KHENIFRA",
        "phone": "05 35 38 54 96",
        "location": "https://www.telecontact.ma/plan-acces/pharmacie-aguelman-azgza-/3197547/khenifra",
        "city": "Khénifra"
    },
    {
        "name": "Pharmacie Ait Ishak",
        "address": "centre Ait Ishak  KHENIFRA",
        "phone": "05 35 39 99 93",
        "location": "",
        "city": "Khénifra"
    },
    {
        "name": "Pharmacie Ajdir",
        "address": "route Ajdir  KHENIFRA",
        "phone": "05 35 38 20 66",
        "location": "",
        "city": "Khénifra"
    },
    {
        "name": "Pharmacie Al Massira",
        "address": "313, rue Massira , Amalou Ighriben KHENIFRA",
        "phone": "05 35 38 52 05",
        "location": "https://www.telecontact.ma/plan-acces/pharmacie-al-massira-/3197615/khenifra",
        "city": "Khénifra"
    },
    {
        "name": "Pharmacie Alfath",
        "address": "105, rue 1 , Hay Alfath KHENIFRA",
        "phone": "05 35 38 25 52",
        "location": "https://www.telecontact.ma/plan-acces/pharmacie-alfath-/3197612/khenifra",
        "city": "Khénifra"
    },
    {
        "name": "Pharmacie Amalou",
        "address": "87, bd Massira , hay Amalou KHENIFRA",
        "phone": "05 35 58 73 44",
        "location": "https://www.telecontact.ma/plan-acces/pharmacie-amalou-/3249840/khenifra",
        "city": "Khénifra"
    },
    {
        "name": "Pharmacie Atlas",
        "address": "37, bd Mohammed V  KHENIFRA",
        "phone": "05 35 58 65 06",
        "location": "https://www.telecontact.ma/plan-acces/pharmacie-atlas-/3197616/khenifra",
        "city": "Khénifra"
    },
    {
        "name": "Pharmacie Azir",
        "address": "11, rue Diour Chioukh , ancienne Médina KHENIFRA",
        "phone": "05 35 58 77 57",
        "location": "",
        "city": "Khénifra"
    },
    {
        "name": "Pharmacie Cèdre",
        "address": "261, rue Massira , Amalou Ighriben KHENIFRA",
        "phone": "05 35 58 65 82",
        "location": "https://www.telecontact.ma/plan-acces/pharmacie-c-dre-/3197666/khenifra",
        "city": "Khénifra"
    },
    {
        "name": "Pharmacie Centre de Santé",
        "address": "Ait Ishak  KHENIFRA",
        "phone": "05 35 39 93 15",
        "location": "",
        "city": "Khénifra"
    },
    {
        "name": "Pharmacie Centre El Ksab",
        "address": "155, bd Hassan II , El kbab KHENIFRA",
        "phone": "05 35 39 41 50",
        "location": "",
        "city": "Khénifra"
    },
    {
        "name": "Pharmacie El Amal",
        "address": "58, rue oued Sebou , hay Hamria KHENIFRA",
        "phone": "05 35 38 41 66",
        "location": "",
        "city": "Khénifra"
    },
    {
        "name": "Pharmacie El Habri",
        "address": "185, bd El Massira , Amalou Ighriben KHENIFRA",
        "phone": "05 35 38 30 03",
        "location": "https://www.telecontact.ma/plan-acces/pharmacie-el-habri-/3197635/khenifra",
        "city": "Khénifra"
    },
    {
        "name": "Pharmacie Ennajd",
        "address": "Hay Ennajd , n°179 KHENIFRA",
        "phone": "06 24 82 05 50",
        "location": "https://www.telecontact.ma/plan-acces/pharmacie-ennajd-/3249843/khenifra",
        "city": "Khénifra"
    },
    {
        "name": "Pharmacie Fleurs",
        "address": "hay Essalam , bloc H n°361 KHENIFRA",
        "phone": "05 35 38 22 42",
        "location": "",
        "city": "Khénifra"
    },
    {
        "name": "Pharmacie Ghrissi",
        "address": "66, bd Mohammed V , cité Hassan II KHENIFRA",
        "phone": "05 35 58 78 57",
        "location": "https://www.telecontact.ma/plan-acces/pharmacie-ghrissi-/3197665/khenifra",
        "city": "Khénifra"
    },
    {
        "name": "Pharmacie Ibn Rochd",
        "address": "Cité Agricate , rue 6 n°26 KHENIFRA",
        "phone": "05 35 58 88 89",
        "location": "https://www.telecontact.ma/plan-acces/pharmacie-ibn-rochd-/3249849/khenifra",
        "city": "Khénifra"
    },
    {
        "name": "Pharmacie Ibn Sina",
        "address": "34, rue Elmassira , cité Oum Rabia KHENIFRA",
        "phone": "05 35 58 88 08",
        "location": "https://www.telecontact.ma/plan-acces/pharmacie-ibn-sina-/3197644/khenifra",
        "city": "Khénifra"
    },
    {
        "name": "Pharmacie Jabbour",
        "address": "17, bd Massira Khadra  KHENIFRA",
        "phone": "05 35 58 88 47",
        "location": "https://www.telecontact.ma/plan-acces/pharmacie-jabbour-/3197648/khenifra",
        "city": "Khénifra"
    },
    {
        "name": "Pharmacie Kaf Nsour",
        "address": "Kaf Nsour , rte de Khénifra KHENIFRA",
        "phone": "05 35 38 29 41",
        "location": "",
        "city": "Khénifra"
    },
    {
        "name": "Pharmacie Karaouia",
        "address": "1, bd Abdellah Chefchaouni , hay Ismailia KHENIFRA",
        "phone": "05 35 38 48 48",
        "location": "",
        "city": "Khénifra"
    },
    {
        "name": "Pharmacie la Gare",
        "address": "200, bd Zerktouni , cité Michlifen KHENIFRA",
        "phone": "05 35 38 20 38",
        "location": "https://www.telecontact.ma/plan-acces/pharmacie-la-gare-/3197663/khenifra",
        "city": "Khénifra"
    },
    {
        "name": "Pharmacie Najah",
        "address": "hay Najah , rue 3 n°2 KHENIFRA",
        "phone": "05 35 38 45 45",
        "location": "https://www.telecontact.ma/plan-acces/pharmacie-najah-/3197661/khenifra",
        "city": "Khénifra"
    },
    {
        "name": "Pharmacie Nasr",
        "address": "68, bd Massira , Amalou KHENIFRA",
        "phone": "05 35 38 36 72",
        "location": "https://www.telecontact.ma/plan-acces/pharmacie-nasr-/3197658/khenifra",
        "city": "Khénifra"
    },
    {
        "name": "Pharmacie Noor",
        "address": "11, quartier des Far  KHENIFRA",
        "phone": "05 35 58 66 43",
        "location": "https://www.telecontact.ma/plan-acces/pharmacie-noor-/3263883/khenifra",
        "city": "Khénifra"
    },
    {
        "name": "Pharmacie Oum El Qora",
        "address": "Lotissement El Abdellaoui , rte. de Meknés n°31 bis KHENIFRA",
        "phone": "05 35 38 41 43",
        "location": "https://www.telecontact.ma/plan-acces/pharmacie-oum-el-qora-/3249847/khenifra",
        "city": "Khénifra"
    }
]