[
    {
        "name": "Pharmacie Alwafae",
        "address": "43, Avenue Bir Anzarane , 92150  KSAR EL KEBIR",
        "phone": "05 39 91 88 88",
        "location": "https://www.telecontact.ma/plan-acces/pharmacie-alwafae-/0309900/ksar-el-kebir",
        "city": "Ksar el-Kébir"
    },
    {
        "name": "Pharmacie Andalouss",
        "address": "hay Andalouss , grp. A rue 15 n°58 KSAR EL KEBIR",
        "phone": "05 39 90 65 42",
        "location": "https://www.telecontact.ma/plan-acces/pharmacie-andalouss-/3064165/ksar-el-kebir",
        "city": "Ksar el-Kébir"
    },
    {
        "name": "Pharmacie Annassime",
        "address": "Hay Andalous , rue 18 n°7 KSAR EL KEBIR",
        "phone": "05 39 90 83 00",
        "location": "https://www.telecontact.ma/plan-acces/pharmacie-annassime-/3282661/ksar-el-kebir",
        "city": "Ksar el-Kébir"
    },
    {
        "name": "Pharmacie Arrahma",
        "address": "hay Assalame , rue 32 grp Z n°5 bis KSAR EL KEBIR",
        "phone": "05 39 91 88 10",
        "location": "https://www.telecontact.ma/plan-acces/pharmacie-arrahma-/3279885/ksar-el-kebir",
        "city": "Ksar el-Kébir"
    },
    {
        "name": "Pharmacie Assalam",
        "address": "7, av Ennasr Jardin Assalam  KSAR EL KEBIR",
        "phone": "05 39 90 70 22",
        "location": "https://www.telecontact.ma/plan-acces/pharmacie-assalam-/3064144/ksar-el-kebir",
        "city": "Ksar el-Kébir"
    },
    {
        "name": "Pharmacie Azzahra",
        "address": "lotis. El Fadl Bounouara  KSAR EL KEBIR",
        "phone": "06 24 70 93 49",
        "location": "https://www.telecontact.ma/plan-acces/pharmacie-azzahra-/3279883/ksar-el-kebir",
        "city": "Ksar el-Kébir"
    },
    {
        "name": "Pharmacie Azzaitoun",
        "address": "23 Bis, lotiss. Al Fadl, Bounouara, Azzaitoun KSAR EL KEBIR",
        "phone": "05 39 90 37 30",
        "location": "https://www.telecontact.ma/plan-acces/pharmacie-azzaitoun-/3332566/ksar-el-kebir",
        "city": "Ksar el-Kébir"
    },
    {
        "name": "Pharmacie Bab ElOued",
        "address": "25, rte. de Rabat  KSAR EL KEBIR",
        "phone": "05 39 90 48 00",
        "location": "https://www.telecontact.ma/plan-acces/pharmacie-bab-eloued-/3126605/ksar-el-kebir",
        "city": "Ksar el-Kébir"
    },
    {
        "name": "Pharmacie Bismillah",
        "address": "1, douar oulad Hmid , grpe H rue 23 ksar Lekbir KSAR EL KEBIR",
        "phone": "05 39 90 22 31",
        "location": "https://www.telecontact.ma/plan-acces/pharmacie-bismillah-/3223850/ksar-el-kebir",
        "city": "Ksar el-Kébir"
    },
    {
        "name": "Pharmacie Dar Doukhane",
        "address": "4, rue Oued ElMakhazine  KSAR EL KEBIR",
        "phone": "05 39 90 42 64",
        "location": "https://www.telecontact.ma/plan-acces/pharmacie-dar-doukhane-/3064091/ksar-el-kebir",
        "city": "Ksar el-Kébir"
    },
    {
        "name": "Pharmacie ElMoussalah",
        "address": "102, rte. de Larache  KSAR EL KEBIR",
        "phone": "05 39 90 71 90",
        "location": "https://www.telecontact.ma/plan-acces/pharmacie-elmoussalah-/3064142/ksar-el-kebir",
        "city": "Ksar el-Kébir"
    },
    {
        "name": "Pharmacie Ennour",
        "address": "hay Essalam secteur Z , rue 17 n°53 KSAR EL KEBIR",
        "phone": "05 39 90 20 63",
        "location": "https://www.telecontact.ma/plan-acces/pharmacie-ennour-/3126778/ksar-el-kebir",
        "city": "Ksar el-Kébir"
    },
    {
        "name": "Pharmacie Ibn Khaldoun",
        "address": "25, av. de Municipalité  KSAR EL KEBIR",
        "phone": "05 39 90 46 90",
        "location": "https://www.telecontact.ma/plan-acces/pharmacie-ibn-khaldoun-/3064145/ksar-el-kebir",
        "city": "Ksar el-Kébir"
    },
    {
        "name": "Pharmacie Ibn Rochd",
        "address": "20, av. des Briques  KSAR EL KEBIR",
        "phone": "05 39 91 86 34",
        "location": "https://www.telecontact.ma/plan-acces/pharmacie-ibn-rochd-/3279204/ksar-el-kebir",
        "city": "Ksar el-Kébir"
    },
    {
        "name": "Pharmacie Ibn Sina",
        "address": "82, av. 20 Août  KSAR EL KEBIR",
        "phone": "05 39 90 25 25",
        "location": "https://www.telecontact.ma/plan-acces/pharmacie-ibn-sina-/3064162/ksar-el-kebir",
        "city": "Ksar el-Kébir"
    },
    {
        "name": "Pharmacie Imane",
        "address": "bd Annakhil, Chaabi KSAR EL KEBIR",
        "phone": "05 39 90 71 76",
        "location": "https://www.telecontact.ma/plan-acces/pharmacie-imane-/3345173/ksar-el-kebir",
        "city": "Ksar el-Kébir"
    },
    {
        "name": "Pharmacie Ksar ElKebir",
        "address": "7, av. de La Station  KSAR EL KEBIR",
        "phone": "05 39 90 64 62",
        "location": "https://www.telecontact.ma/plan-acces/pharmacie-ksar-elkebir-/3277716/ksar-el-kebir",
        "city": "Ksar el-Kébir"
    },
    {
        "name": "Pharmacie l'Hôpital",
        "address": "1, lotiss. Al Ouahda , rte de Larache KSAR EL KEBIR",
        "phone": "05 39 90 69 76",
        "location": "https://www.telecontact.ma/plan-acces/pharmacie-l-h-pital-/3274192/ksar-el-kebir",
        "city": "Ksar el-Kébir"
    },
    {
        "name": "Pharmacie Laboratoire Essaada",
        "address": "101, Av. 20 Aout , 92150  KSAR EL KEBIR",
        "phone": "05 39 91 84 77",
        "location": "https://www.telecontact.ma/plan-acces/pharmacie-laboratoire-essaada-/2107367/ksar-el-kebir",
        "city": "Ksar el-Kébir"
    },
    {
        "name": "Pharmacie Loukkous",
        "address": "9, rue Tlemcani , 92150  KSAR EL KEBIR",
        "phone": "05 39 91 86 79",
        "location": "https://www.telecontact.ma/plan-acces/pharmacie-loukkous-/1477600/ksar-el-kebir",
        "city": "Ksar el-Kébir"
    },
    {
        "name": "Pharmacie Mansour Eddahbi",
        "address": "hay Sidi Redwan, Derb 1 n°3  KSAR EL KEBIR",
        "phone": "05 39 90 68 52",
        "location": "https://www.telecontact.ma/plan-acces/pharmacie-mansour-eddahbi-/3064151/ksar-el-kebir",
        "city": "Ksar el-Kébir"
    },
    {
        "name": "Pharmacie Nouvelle",
        "address": "hay Ourouba , rue 16 n°8 KSAR EL KEBIR",
        "phone": "05 39 90 72 29",
        "location": "https://www.telecontact.ma/plan-acces/pharmacie-nouvelle-/3106795/ksar-el-kebir",
        "city": "Ksar el-Kébir"
    },
    {
        "name": "Pharmacie Oued Elmakhazine",
        "address": "2, Place Chouhada , 92150  KSAR EL KEBIR",
        "phone": "05 39 91 87 72",
        "location": "https://www.telecontact.ma/plan-acces/pharmacie-oued-elmakhazine-/1477500/ksar-el-kebir",
        "city": "Ksar el-Kébir"
    },
    {
        "name": "Pharmacie Ouelad Hmayd",
        "address": "rue de Brique , Oulad Hmayd KSAR EL KEBIR",
        "phone": "05 39 91 84 65",
        "location": "https://www.telecontact.ma/plan-acces/pharmacie-ouelad-hmayd-/3277718/ksar-el-kebir",
        "city": "Ksar el-Kébir"
    },
    {
        "name": "Pharmacie Populaire",
        "address": "131, Route de Larache  KSAR EL KEBIR",
        "phone": "05 39 90 22 55",
        "location": "https://www.telecontact.ma/plan-acces/pharmacie-populaire-/3106527/ksar-el-kebir",
        "city": "Ksar el-Kébir"
    },
    {
        "name": "Pharmacie Rouafa Oulia",
        "address": "hay Essalam, grp N rue 37 n°26 KSAR EL KEBIR",
        "phone": "05 39 90 21 63",
        "location": "https://www.telecontact.ma/plan-acces/pharmacie-rouafa-oulia-/3313149/ksar-el-kebir",
        "city": "Ksar el-Kébir"
    },
    {
        "name": "Pharmacie Samaa",
        "address": "lotiss. Riad 1, El Menzeh KSAR EL KEBIR",
        "phone": "06 42 64 60 42",
        "location": "https://www.telecontact.ma/plan-acces/pharmacie-samaa-/3346127/ksar-el-kebir",
        "city": "Ksar el-Kébir"
    },
    {
        "name": "Pharmacie Sidi AlKamil",
        "address": "135, rue de Rabat Sidi AlKamil  KSAR EL KEBIR",
        "phone": "05 39 90 38 50",
        "location": "https://www.telecontact.ma/plan-acces/pharmacie-sidi-alkamil-/3064138/ksar-el-kebir",
        "city": "Ksar el-Kébir"
    },
    {
        "name": "Pharmacie Sidi Biyati",
        "address": "route Sidi El Biyati , grp Z n°75 KSAR EL KEBIR",
        "phone": "05 39 90 50 45",
        "location": "https://www.telecontact.ma/plan-acces/pharmacie-sidi-biyati-/3108518/ksar-el-kebir",
        "city": "Ksar el-Kébir"
    },
    {
        "name": "Pharmacie Sidi Makhlouf",
        "address": "hay Salam 1-3 , Merina KSAR EL KEBIR",
        "phone": "05 39 91 84 12",
        "location": "https://www.telecontact.ma/plan-acces/pharmacie-sidi-makhlouf-/3064156/ksar-el-kebir",
        "city": "Ksar el-Kébir"
    },
    {
        "name": "Pharmacie Taoud",
        "address": "303, route de Tatoft  KSAR EL KEBIR",
        "phone": "05 39 90 35 20",
        "location": "https://www.telecontact.ma/plan-acces/pharmacie-taoud-/3107203/ksar-el-kebir",
        "city": "Ksar el-Kébir"
    },
    {
        "name": "Pharmacie Tatoft",
        "address": "144, route de Tatoft  KSAR EL KEBIR",
        "phone": "05 39 91 84 03",
        "location": "https://www.telecontact.ma/plan-acces/pharmacie-tatoft-/2209662/ksar-el-kebir",
        "city": "Ksar el-Kébir"
    },
    {
        "name": "Pharmacie Wahrani",
        "address": "hay Assalam , grp. D rue 15 n°16 KSAR EL KEBIR",
        "phone": "05 34 62 95 68",
        "location": "https://www.telecontact.ma/plan-acces/pharmacie-wahrani-/3068241/ksar-el-kebir",
        "city": "Ksar el-Kébir"
    },
    {
        "name": "Pharmacie Abi AlMahassin",
        "address": "hay ElMassira ElKhadra grp.D , rue 10 n°65 KSAR EL KEBIR",
        "phone": "05 39 90 55 55",
        "location": "https://www.telecontact.ma/plan-acces/pharmacie-abi-almahassin-/3064154/ksar-el-kebir",
        "city": "Ksar el-Kébir"
    },
    {
        "name": "Pharmacie Al Fath",
        "address": "Lotissement Hamza , Dar Dokan KSAR EL KEBIR",
        "phone": "05 39 90 55 82",
        "location": "https://www.telecontact.ma/plan-acces/pharmacie-al-fath-/3270986/ksar-el-kebir",
        "city": "Ksar el-Kébir"
    },
    {
        "name": "Pharmacie Al Madina",
        "address": "84 Bis, hay Lalla Fatima Andaloussia  KSAR EL KEBIR",
        "phone": "05 39 90 37 44",
        "location": "https://www.telecontact.ma/plan-acces/pharmacie-al-madina-/3270983/ksar-el-kebir",
        "city": "Ksar el-Kébir"
    },
    {
        "name": "Pharmacie Al Yaqtine",
        "address": "hay Ouled Hmayde  KSAR EL KEBIR",
        "phone": "05 39 90 77 34",
        "location": "https://www.telecontact.ma/plan-acces/pharmacie-al-yaqtine-/3274193/ksar-el-kebir",
        "city": "Ksar el-Kébir"
    },
    {
        "name": "Pharmacie AlAmal",
        "address": "Hay Ouelad Hmayd  KSAR EL KEBIR",
        "phone": "05 39 90 62 46",
        "location": "https://www.telecontact.ma/plan-acces/pharmacie-alamal-/3279203/ksar-el-kebir",
        "city": "Ksar el-Kébir"
    },
    {
        "name": "Pharmacie Almahata",
        "address": "77, bd. Med. Zerktouni , 92150  KSAR EL KEBIR",
        "phone": "05 39 91 90 05",
        "location": "https://www.telecontact.ma/plan-acces/pharmacie-almahata-/1477800/ksar-el-kebir",
        "city": "Ksar el-Kébir"
    },
    {
        "name": "Pharmacie AlMassira",
        "address": "hay ElMassira , grp. A n°46 KSAR EL KEBIR",
        "phone": "05 39 90 76 58",
        "location": "https://www.telecontact.ma/plan-acces/pharmacie-almassira-/3064147/ksar-el-kebir",
        "city": "Ksar el-Kébir"
    }
]