[
    {
        "name": "Pharmacie Al Hayat",
        "address": "Z.i Bir Rami, lotiss. Lahraichi n°162, 14090  KENITRA",
        "phone": "05 37 37 70 15",
        "location": "https://www.telecontact.ma/plan-acces/pharmacie-al-hayat-/2173675/kenitra",
        "city": "Kénitra"
    },
    {
        "name": "Pharmacie Al Hikma",
        "address": "hay Al Maghrib Al Arabi, bloc D n°311, 14080  KENITRA",
        "phone": "05 37 36 59 24",
        "location": "https://www.telecontact.ma/plan-acces/pharmacie-al-hikma-/3118656/kenitra",
        "city": "Kénitra"
    },
    {
        "name": "Pharmacie Al Houda",
        "address": "hay Bir Rami, rte de l'Ecole n°323 KENITRA",
        "phone": "05 37 36 77 32",
        "location": "https://www.telecontact.ma/plan-acces/pharmacie-al-houda-/3285590/kenitra",
        "city": "Kénitra"
    },
    {
        "name": "Pharmacie Al Khabbazat Populaire",
        "address": "33, rue John Kennedy , 14010  KENITRA",
        "phone": "05 37 36 59 23",
        "location": "https://www.telecontact.ma/plan-acces/pharmacie-al-khabbazat-populaire-/0307100/kenitra",
        "city": "Kénitra"
    },
    {
        "name": "Pharmacie Al Khayr",
        "address": "hay Saknia, lotiss. Alamal 1 n°1953, ouled Arafa KENITRA",
        "phone": "06 70 87 55 17",
        "location": "https://www.telecontact.ma/plan-acces/pharmacie-al-khayr-/3342987/kenitra",
        "city": "Kénitra"
    },
    {
        "name": "Pharmacie Al Maghreb Arabi",
        "address": "1791, bd Massira El Khadra, lotiss. AlWafa I Saknia, 14050  KENITRA",
        "phone": "05 37 38 02 67",
        "location": "https://www.telecontact.ma/plan-acces/pharmacie-al-maghreb-arabi-/3023388/kenitra",
        "city": "Kénitra"
    },
    {
        "name": "Pharmacie Al Manal",
        "address": "hay Ouled Oujih, bloc 30 G.II, 14080  KENITRA",
        "phone": "05 37 35 09 21",
        "location": "https://www.telecontact.ma/plan-acces/pharmacie-al-manal-/2173774/kenitra",
        "city": "Kénitra"
    },
    {
        "name": "Pharmacie Al Manar",
        "address": "hay Bir Rami, Rte des écoles, Lotis. Al Manar n°42 KENITRA",
        "phone": "05 37 39 50 33",
        "location": "https://www.telecontact.ma/plan-acces/pharmacie-al-manar-/3312073/kenitra",
        "city": "Kénitra"
    },
    {
        "name": "Pharmacie Al Masbah",
        "address": "hay Ouled Oujih  KENITRA",
        "phone": "05 30 33 22 00",
        "location": "https://www.telecontact.ma/plan-acces/pharmacie-al-masbah-/9014843/kenitra",
        "city": "Kénitra"
    },
    {
        "name": "Pharmacie Al Mowatene",
        "address": "279, bd Al Maghrib Al Arabi, F2 chateau ouled Oujih KENITRA",
        "phone": "05 37 32 21 68",
        "location": "https://www.telecontact.ma/plan-acces/pharmacie-al-mowatene-/3332790/kenitra",
        "city": "Kénitra"
    },
    {
        "name": "Pharmacie Al Oumouma",
        "address": "hay Al Irchad, n°863, Saknia, 14050  KENITRA",
        "phone": "05 37 38 35 32",
        "location": "https://www.telecontact.ma/plan-acces/pharmacie-al-oumouma-/3118654/kenitra",
        "city": "Kénitra"
    },
    {
        "name": "Pharmacie Al Quods",
        "address": "hay Ouled Oujih, bloc G1 lot 106, 14080  KENITRA",
        "phone": "05 37 35 11 30",
        "location": "https://www.telecontact.ma/plan-acces/pharmacie-al-quods-/2174867/kenitra",
        "city": "Kénitra"
    },
    {
        "name": "Pharmacie Al Wiam",
        "address": "714, lotiss. Ismailia, rte Mehdia, 14090  KENITRA",
        "phone": "05 37 35 36 40",
        "location": "https://www.telecontact.ma/plan-acces/pharmacie-al-wiam-/3118648/kenitra",
        "city": "Kénitra"
    },
    {
        "name": "Pharmacie Al Widad",
        "address": "1435, lotiss. Ismailia  KENITRA",
        "phone": "05 37 35 11 25",
        "location": "https://www.telecontact.ma/plan-acces/pharmacie-al-widad-/3118650/kenitra",
        "city": "Kénitra"
    },
    {
        "name": "Pharmacie AlAmana",
        "address": "lotiss. El Wafa, lot n° 1092 KENITRA",
        "phone": "05 37 38 44 37",
        "location": "https://www.telecontact.ma/plan-acces/pharmacie-alamana-/3118606/kenitra",
        "city": "Kénitra"
    },
    {
        "name": "Pharmacie Alhamdolilah",
        "address": "lotiss. Haj Mansour, lot 12, sect. C, Saknia KENITRA",
        "phone": "05 37 39 18 77",
        "location": "https://www.telecontact.ma/plan-acces/pharmacie-alhamdolilah-/3023348/kenitra",
        "city": "Kénitra"
    },
    {
        "name": "Pharmacie AlHassoune",
        "address": "lotiss. El Wafa 2, lot.617 KENITRA",
        "phone": "05 37 38 73 63",
        "location": "https://www.telecontact.ma/plan-acces/pharmacie-alhassoune-/3197632/kenitra",
        "city": "Kénitra"
    },
    {
        "name": "Pharmacie AlMaghrib",
        "address": "hay El Fath, n°1 Saknia KENITRA",
        "phone": "05 37 38 15 25",
        "location": "https://www.telecontact.ma/plan-acces/pharmacie-almaghrib-/3193500/kenitra",
        "city": "Kénitra"
    },
    {
        "name": "Pharmacie AlMouna",
        "address": "lotiss. Assafa, rue 5 Lot. 155, 14050  KENITRA",
        "phone": "05 37 39 06 92",
        "location": "https://www.telecontact.ma/plan-acces/pharmacie-almouna-/3038904/kenitra",
        "city": "Kénitra"
    },
    {
        "name": "Pharmacie AlMoustaoussaf",
        "address": "hay Ennour, rue 100, lot. 909 n°52, Saknia, 14050  KENITRA",
        "phone": "05 37 38 60 65",
        "location": "https://www.telecontact.ma/plan-acces/pharmacie-almoustaoussaf-/3040151/kenitra",
        "city": "Kénitra"
    },
    {
        "name": "Pharmacie Mohssine",
        "address": "hay Al Maghrib Al Arabi, B entension n°107, 14080  KENITRA",
        "phone": "05 37 35 65 96",
        "location": "https://www.telecontact.ma/plan-acces/pharmacie-mohssine-/3118610/kenitra",
        "city": "Kénitra"
    },
    {
        "name": "Pharmacie Moussa",
        "address": "210, lotiss. Andalous, lot O, Arfa KENITRA",
        "phone": "05 37 38 01 72",
        "location": "https://www.telecontact.ma/plan-acces/pharmacie-moussa-/3197600/kenitra",
        "city": "Kénitra"
    },
    {
        "name": "Pharmacie Moustachfa Idrissi",
        "address": "hay Maâmora, n°2 bloc A, 14050  KENITRA",
        "phone": "05 37 37 32 76",
        "location": "https://www.telecontact.ma/plan-acces/pharmacie-moustachfa-idrissi-/3023389/kenitra",
        "city": "Kénitra"
    },
    {
        "name": "Pharmacie Omar",
        "address": "176, lotiss. Taibya, rte Mehdia KENITRA",
        "phone": "05 37 36 63 64",
        "location": "https://www.telecontact.ma/plan-acces/pharmacie-omar-/3019849/kenitra",
        "city": "Kénitra"
    },
    {
        "name": "Pharmacie Omnia",
        "address": "678, hay Saknia, Al wafae 5 KENITRA",
        "phone": "05 37 31 54 35",
        "location": "https://www.telecontact.ma/plan-acces/pharmacie-omnia-/3317245/kenitra",
        "city": "Kénitra"
    },
    {
        "name": "Pharmacie Ouled Arfa",
        "address": "lotiss. Assafae, rue15 KENITRA",
        "phone": "05 50 03 95 72",
        "location": "https://www.telecontact.ma/plan-acces/pharmacie-ouled-arfa-/3317237/kenitra",
        "city": "Kénitra"
    },
    {
        "name": "Pharmacie Ouled M'barek",
        "address": "Z.i Bir Rami, Ouled M'barek n°6, 14090  KENITRA",
        "phone": "05 37 36 01 25",
        "location": "https://www.telecontact.ma/plan-acces/pharmacie-ouled-m-barek-/3023326/kenitra",
        "city": "Kénitra"
    },
    {
        "name": "Pharmacie Ouled Nsar",
        "address": "Sidi Taibi, Ouled Nsar KENITRA",
        "phone": "05 37 37 60 79",
        "location": "https://www.telecontact.ma/plan-acces/pharmacie-ouled-nsar-/3150128/kenitra",
        "city": "Kénitra"
    },
    {
        "name": "Pharmacie Ouled Oujih",
        "address": "hay Ouled Oujih, grp. C, lot. 283, 14080  KENITRA",
        "phone": "05 37 35 16 49",
        "location": "https://www.telecontact.ma/plan-acces/pharmacie-ouled-oujih-/2150438/kenitra",
        "city": "Kénitra"
    },
    {
        "name": "Pharmacie Ouled Slama",
        "address": "Sidi Ayach  KENITRA",
        "phone": "05 37 37 34 67",
        "location": "https://www.telecontact.ma/plan-acces/pharmacie-ouled-slama-/3281349/kenitra",
        "city": "Kénitra"
    },
    {
        "name": "Pharmacie Ouled Taleb",
        "address": "Sidi Taibi, Ouled Taleb KENITRA",
        "phone": "05 37 37 69 03",
        "location": "https://www.telecontact.ma/plan-acces/pharmacie-ouled-taleb-/3150029/kenitra",
        "city": "Kénitra"
    },
    {
        "name": "Pharmacie Ourida",
        "address": "lotiss. Ourida, lot n°91 KENITRA",
        "phone": "05 37 38 34 67",
        "location": "https://www.telecontact.ma/plan-acces/pharmacie-ourida-/3023285/kenitra",
        "city": "Kénitra"
    },
    {
        "name": "Pharmacie Pasteur",
        "address": "hay Jdid, P.d.u., lot 5689, rue 162 KENITRA",
        "phone": "05 37 38 62 48",
        "location": "https://www.telecontact.ma/plan-acces/pharmacie-pasteur-/3023426/kenitra",
        "city": "Kénitra"
    },
    {
        "name": "Pharmacie Prestige",
        "address": "124 D, hay El Haouzia  KENITRA",
        "phone": "05 37 35 35 72",
        "location": "https://www.telecontact.ma/plan-acces/pharmacie-prestige-/3023226/kenitra",
        "city": "Kénitra"
    },
    {
        "name": "Pharmacie Principale",
        "address": "204, bd Mohammed V , 14010  KENITRA",
        "phone": "05 37 36 35 03",
        "location": "https://www.telecontact.ma/plan-acces/pharmacie-principale-/0307300/kenitra",
        "city": "Kénitra"
    },
    {
        "name": "Pharmacie Principale Al Bassatine",
        "address": "lotiss. El Bassatine, n° 2 Al Fouarat KENITRA",
        "phone": "06 60 91 54 75",
        "location": "https://www.telecontact.ma/plan-acces/pharmacie-principale-al-bassatine-/3344864/kenitra",
        "city": "Kénitra"
    },
    {
        "name": "Pharmacie Qabice",
        "address": "hay Mkhalif , n°1943 Ain Sébaâ KENITRA",
        "phone": "05 37 39 21 42",
        "location": "https://www.telecontact.ma/plan-acces/pharmacie-qabice-/3330618/kenitra",
        "city": "Kénitra"
    },
    {
        "name": "Pharmacie Rayane",
        "address": "7, lotiss. Corsica  KENITRA",
        "phone": "05 37 35 29 57",
        "location": "https://www.telecontact.ma/plan-acces/pharmacie-rayane-/3118564/kenitra",
        "city": "Kénitra"
    },
    {
        "name": "Pharmacie Regragui",
        "address": "8, bd Yacoub El Mansour , 14020  KENITRA",
        "phone": "05 37 36 13 18",
        "location": "https://www.telecontact.ma/plan-acces/pharmacie-regragui-/3019594/kenitra",
        "city": "Kénitra"
    },
    {
        "name": "Pharmacie Riad",
        "address": "137, bd Palestine , 14010  KENITRA",
        "phone": "05 37 36 29 72",
        "location": "https://www.telecontact.ma/plan-acces/pharmacie-riad-/0307400/kenitra",
        "city": "Kénitra"
    },
    {
        "name": "Pharmacie Mimosas",
        "address": "460, bd Mohammed V , 14000  KENITRA",
        "phone": "05 37 37 45 23",
        "location": "https://www.telecontact.ma/plan-acces/pharmacie-mimosas-/2150341/kenitra",
        "city": "Kénitra"
    },
    {
        "name": "Pharmacie Moderne",
        "address": "rue Jbala ang. rue Loubnane, ville haute, 14020  KENITRA",
        "phone": "05 37 37 59 07",
        "location": "https://www.telecontact.ma/plan-acces/pharmacie-moderne-/2159748/kenitra",
        "city": "Kénitra"
    },
    {
        "name": "Pharmacie Mohamed",
        "address": "2, rue Ibn Benna, mosquée Lalla Khadija KENITRA",
        "phone": "05 37 37 35 73",
        "location": "https://www.telecontact.ma/plan-acces/pharmacie-mohamed-/3253276/kenitra",
        "city": "Kénitra"
    },
    {
        "name": "Pharmacie Hind",
        "address": "81 Bis, rue Oued Sebou  KENITRA",
        "phone": "05 37 36 12 96",
        "location": "https://www.telecontact.ma/plan-acces/pharmacie-hind-/3062019/kenitra",
        "city": "Kénitra"
    },
    {
        "name": "Pharmacie hôtel de ville",
        "address": "412, bd Mohammed V , 14000  KENITRA",
        "phone": "05 37 37 13 98",
        "location": "https://www.telecontact.ma/plan-acces/pharmacie-h-tel-de-ville-/1478700/kenitra",
        "city": "Kénitra"
    },
    {
        "name": "Pharmacie Ibn Baja",
        "address": "hay Ouled Oujih, bloc L, n°7, 14080  KENITRA",
        "phone": "05 37 35 22 43",
        "location": "https://www.telecontact.ma/plan-acces/pharmacie-ibn-baja-/2194309/kenitra",
        "city": "Kénitra"
    },
    {
        "name": "Pharmacie Ibn Baytar",
        "address": "1399, lotiss. Hadada  KENITRA",
        "phone": "05 37 35 70 22",
        "location": "https://www.telecontact.ma/plan-acces/pharmacie-ibn-baytar-/3285592/kenitra",
        "city": "Kénitra"
    },
    {
        "name": "Pharmacie Ibn Haitam",
        "address": "hay Saknia, gpe. Berkane n°6 KENITRA",
        "phone": "05 37 39 19 44",
        "location": "https://www.telecontact.ma/plan-acces/pharmacie-ibn-haitam-/3197579/kenitra",
        "city": "Kénitra"
    },
    {
        "name": "Pharmacie Ibn Khaldoun",
        "address": "hay Saknia, Erac rue 7 n°158, 14050  KENITRA",
        "phone": "05 37 38 29 76",
        "location": "https://www.telecontact.ma/plan-acces/pharmacie-ibn-khaldoun-/2224936/kenitra",
        "city": "Kénitra"
    },
    {
        "name": "Pharmacie Ibn Rochd",
        "address": "102, rue Aryada, quartier la Cigogne, 14050  KENITRA",
        "phone": "05 37 36 35 98",
        "location": "https://www.telecontact.ma/plan-acces/pharmacie-ibn-rochd-/1169700/kenitra",
        "city": "Kénitra"
    },
    {
        "name": "Pharmacie Ibn Tofail",
        "address": "douar Ouled Mbarek, lot n°2 KENITRA",
        "phone": "05 37 36 57 00",
        "location": "https://www.telecontact.ma/plan-acces/pharmacie-ibn-tofail-/3332160/kenitra",
        "city": "Kénitra"
    },
    {
        "name": "Pharmacie Imane",
        "address": "182, lotiss. El Wafa, souk Sebt KENITRA",
        "phone": "05 37 38 61 12",
        "location": "",
        "city": "Kénitra"
    },
    {
        "name": "Pharmacie Irchad",
        "address": "117, bd Massira El Khadra, lotiss. Irchad, Saknia, 14050  KENITRA",
        "phone": "05 37 39 29 00",
        "location": "https://www.telecontact.ma/plan-acces/pharmacie-irchad-/2173119/kenitra",
        "city": "Kénitra"
    },
    {
        "name": "Pharmacie Iskan Chaabi",
        "address": "lotiss. Dar Salama, bloc H n°32 mag 14000 KENITRA",
        "phone": "05 37 37 15 83",
        "location": "https://www.telecontact.ma/plan-acces/pharmacie-iskan-chaabi-/3197584/kenitra",
        "city": "Kénitra"
    },
    {
        "name": "Pharmacie Ismailia",
        "address": "hay Ouled Oujih, bloc. L n°355, 14080  KENITRA",
        "phone": "05 37 35 36 16",
        "location": "https://www.telecontact.ma/plan-acces/pharmacie-ismailia-/3019925/kenitra",
        "city": "Kénitra"
    },
    {
        "name": "Pharmacie Ittihad",
        "address": "12, rue Caid Maati , 14010  KENITRA",
        "phone": "05 37 36 29 59",
        "location": "https://www.telecontact.ma/plan-acces/pharmacie-ittihad-/0306800/kenitra",
        "city": "Kénitra"
    },
    {
        "name": "Pharmacie Jalale",
        "address": "67, rte de Mehdia, Lotiss Haddadi KENITRA",
        "phone": "05 37 35 86 43",
        "location": "https://www.telecontact.ma/plan-acces/pharmacie-jalale-/3317263/kenitra",
        "city": "Kénitra"
    },
    {
        "name": "Pharmacie Jnane Ikbal",
        "address": "301, hay Bir Rami, Lotiss Jnane KENITRA",
        "phone": "07 00 80 85 86",
        "location": "https://www.telecontact.ma/plan-acces/pharmacie-jnane-ikbal-/3317268/kenitra",
        "city": "Kénitra"
    },
    {
        "name": "Pharmacie Karam",
        "address": "lotiss. le Vallon  KENITRA",
        "phone": "06 61 87 78 17",
        "location": "https://www.telecontact.ma/plan-acces/pharmacie-karam-/3315095/kenitra",
        "city": "Kénitra"
    },
    {
        "name": "Pharmacie Kénitra",
        "address": "hay Bir Rami Est, mosquée M'chiche ElAlami, 14090  KENITRA",
        "phone": "05 37 37 68 99",
        "location": "https://www.telecontact.ma/plan-acces/pharmacie-k-nitra-/3019632/kenitra",
        "city": "Kénitra"
    },
    {
        "name": "Pharmacie Khalid",
        "address": "1101, lotiss. Andalous  KENITRA",
        "phone": "05 37 38 13 11",
        "location": "https://www.telecontact.ma/plan-acces/pharmacie-khalid-/3197589/kenitra",
        "city": "Kénitra"
    },
    {
        "name": "Pharmacie Korchi",
        "address": "161, hay Bir Rami Ouest  KENITRA",
        "phone": "05 37 36 77 26",
        "location": "https://www.telecontact.ma/plan-acces/pharmacie-korchi-/3192237/kenitra",
        "city": "Kénitra"
    },
    {
        "name": "Pharmacie l'avenir",
        "address": "hay Ouled Oujih, lot 29, sect. C, 14080  KENITRA",
        "phone": "05 37 35 24 72",
        "location": "https://www.telecontact.ma/plan-acces/pharmacie-l-avenir-/2194888/kenitra",
        "city": "Kénitra"
    },
    {
        "name": "Pharmacie Chifaa",
        "address": "hay Ouled Oujih, résid. Ikbal, imm. n°10 n°44, 14080  KENITRA",
        "phone": "05 37 35 28 70",
        "location": "https://www.telecontact.ma/plan-acces/pharmacie-chifaa-/2210046/kenitra",
        "city": "Kénitra"
    },
    {
        "name": "Pharmacie Chourafa",
        "address": "Kasbat Mehdia , n° 1393 KENITRA",
        "phone": "05 37 38 82 10",
        "location": "",
        "city": "Kénitra"
    },
    {
        "name": "Pharmacie Cité d'Urgence",
        "address": "quartier d' Urgence, Bloc C n°2 KENITRA",
        "phone": "05 37 36 33 89",
        "location": "https://www.telecontact.ma/plan-acces/pharmacie-cit-d-urgence-/3062004/kenitra",
        "city": "Kénitra"
    },
    {
        "name": "Pharmacie Corsica",
        "address": "lotiss. Corsica, mag.10 KENITRA",
        "phone": "05 37 35 51 26",
        "location": "https://www.telecontact.ma/plan-acces/pharmacie-corsica-/2194892/kenitra",
        "city": "Kénitra"
    },
    {
        "name": "Pharmacie Dalia",
        "address": "Maghreb Arabi A2, Lot 17, 14080  KENITRA",
        "phone": "05 37 36 17 27",
        "location": "https://www.telecontact.ma/plan-acces/pharmacie-dalia-/9014587/kenitra",
        "city": "Kénitra"
    },
    {
        "name": "Pharmacie Dar Al Amal",
        "address": "1487, lotiss. Al Amal, tranche 1 ouled arfa KENITRA",
        "phone": "05 34 54 90 14",
        "location": "https://www.telecontact.ma/plan-acces/pharmacie-dar-al-amal-/3315121/kenitra",
        "city": "Kénitra"
    },
    {
        "name": "Pharmacie Dar Doua",
        "address": "rue Idriss Al Akbar, résid El Qods imm.G, 14020  KENITRA",
        "phone": "05 37 36 02 88",
        "location": "https://www.telecontact.ma/plan-acces/pharmacie-dar-doua-/3118554/kenitra",
        "city": "Kénitra"
    },
    {
        "name": "Pharmacie de l'Atlas",
        "address": "hay El Haouzia, lot J, n°1 KENITRA",
        "phone": "05 37 35 34 66",
        "location": "https://www.telecontact.ma/plan-acces/pharmacie-de-l-atlas-/3023330/kenitra",
        "city": "Kénitra"
    },
    {
        "name": "Pharmacie de l'école",
        "address": "hay Ouled Oujih, bloc A lot 172, 14080  KENITRA",
        "phone": "05 37 35 02 76",
        "location": "https://www.telecontact.ma/plan-acces/pharmacie-de-l-cole-/3019601/kenitra",
        "city": "Kénitra"
    },
    {
        "name": "Pharmacie de l'hôpital",
        "address": "4, bd Massira El Khadra , 14050  KENITRA",
        "phone": "05 37 38 10 37",
        "location": "https://www.telecontact.ma/plan-acces/pharmacie-de-l-h-pital-/2159766/kenitra",
        "city": "Kénitra"
    },
    {
        "name": "Pharmacie de la Gare",
        "address": "162, bd Mohamed Diouri , 14000  KENITRA",
        "phone": "05 37 37 61 75",
        "location": "https://www.telecontact.ma/plan-acces/pharmacie-de-la-gare-/2158561/kenitra",
        "city": "Kénitra"
    },
    {
        "name": "Pharmacie de la Mosquée",
        "address": "hay Chabab, rue 91 n°90 Pam, 14000  KENITRA",
        "phone": "05 37 38 07 05",
        "location": "https://www.telecontact.ma/plan-acces/pharmacie-de-la-mosqu-e-/2150042/kenitra",
        "city": "Kénitra"
    },
    {
        "name": "Pharmacie de la province",
        "address": "27, bd Hassan II , 14000  KENITRA",
        "phone": "05 37 37 52 55",
        "location": "https://www.telecontact.ma/plan-acces/pharmacie-de-la-province-/1623600/kenitra",
        "city": "Kénitra"
    },
    {
        "name": "Pharmacie de la Renaissance",
        "address": "169, bd Bacha Abdelhamid El Alaoui , 14010  KENITRA",
        "phone": "05 37 38 20 69",
        "location": "https://www.telecontact.ma/plan-acces/pharmacie-de-la-renaissance-/1479400/kenitra",
        "city": "Kénitra"
    },
    {
        "name": "Pharmacie de la Ville Haute",
        "address": "15, rue Jamil Sidki Zouhaoui , 14020  KENITRA",
        "phone": "05 37 37 04 53",
        "location": "https://www.telecontact.ma/plan-acces/pharmacie-de-la-ville-haute-/0307800/kenitra",
        "city": "Kénitra"
    },
    {
        "name": "Pharmacie des F.A.R",
        "address": "bd des F.a.r. , 14000  KENITRA",
        "phone": "05 37 37 42 00",
        "location": "https://www.telecontact.ma/plan-acces/pharmacie-des-f-a-r-/2224952/kenitra",
        "city": "Kénitra"
    },
    {
        "name": "Pharmacie des Nations",
        "address": "hay Ouled Oujih, bloc G n°61 bis, 14080  KENITRA",
        "phone": "05 37 35 11 00",
        "location": "https://www.telecontact.ma/plan-acces/pharmacie-des-nations-/2173687/kenitra",
        "city": "Kénitra"
    },
    {
        "name": "Pharmacie des Palmiers",
        "address": "rue Al Hizam, Saknia, 14050  KENITRA",
        "phone": "05 37 38 78 66",
        "location": "https://www.telecontact.ma/plan-acces/pharmacie-des-palmiers-/3023328/kenitra",
        "city": "Kénitra"
    },
    {
        "name": "Pharmacie des Résidences",
        "address": "hay Ouled Oujih, Ryad Maâmora, imm.A n°1, 14050  KENITRA",
        "phone": "05 37 35 25 57",
        "location": "https://www.telecontact.ma/plan-acces/pharmacie-des-r-sidences-/2224944/kenitra",
        "city": "Kénitra"
    },
    {
        "name": "Pharmacie Diour Pam",
        "address": "hay Chabab, rue 98 n°28, 14000  KENITRA",
        "phone": "05 37 38 08 81",
        "location": "https://www.telecontact.ma/plan-acces/pharmacie-diour-pam-/2150006/kenitra",
        "city": "Kénitra"
    },
    {
        "name": "Pharmacie Doukkala",
        "address": "lotiss. El Wafa 2, n°508 KENITRA",
        "phone": "06 36 16 84 02",
        "location": "https://www.telecontact.ma/plan-acces/pharmacie-doukkala-/3330631/kenitra",
        "city": "Kénitra"
    },
    {
        "name": "Pharmacie du Marché",
        "address": "1, bd Prince Moulay Abdallah , 14000  KENITRA",
        "phone": "05 37 37 10 54",
        "location": "https://www.telecontact.ma/plan-acces/pharmacie-du-march-/2150323/kenitra",
        "city": "Kénitra"
    },
    {
        "name": "Pharmacie du Passage",
        "address": "133, rte 206, Arsat Al Cadi, 14000  KENITRA",
        "phone": "05 37 36 31 62",
        "location": "https://www.telecontact.ma/plan-acces/pharmacie-du-passage-/2147726/kenitra",
        "city": "Kénitra"
    },
    {
        "name": "Pharmacie du Port",
        "address": "rue Chenguit ang. rue ElMarssa, 14010  KENITRA",
        "phone": "05 37 37 09 78",
        "location": "https://www.telecontact.ma/plan-acces/pharmacie-du-port-/3061906/kenitra",
        "city": "Kénitra"
    },
    {
        "name": "Pharmacie du Rif",
        "address": "506, hay Bir Rami Est  KENITRA",
        "phone": "05 37 36 33 00",
        "location": "https://www.telecontact.ma/plan-acces/pharmacie-du-rif-/3225327/kenitra",
        "city": "Kénitra"
    },
    {
        "name": "Pharmacie Echam",
        "address": "hay Sayad, coopératif El Amal n°40 KENITRA",
        "phone": "05 37 35 13 00",
        "location": "https://www.telecontact.ma/plan-acces/pharmacie-echam-/3118556/kenitra",
        "city": "Kénitra"
    },
    {
        "name": "Pharmacie El Bakkali",
        "address": "hay Bir Rami, Lahrichi KENITRA",
        "phone": "05 37 39 49 69",
        "location": "https://www.telecontact.ma/plan-acces/pharmacie-el-bakkali-/3330630/kenitra",
        "city": "Kénitra"
    },
    {
        "name": "Pharmacie El Felline",
        "address": "344, hay Bir Rami, Jnane 4 KENITRA",
        "phone": "06 38 81 48 67",
        "location": "https://www.telecontact.ma/plan-acces/pharmacie-el-felline-/9014676/kenitra",
        "city": "Kénitra"
    },
    {
        "name": "Pharmacie El Gueddari",
        "address": "222, bd Bacha Abdelhamid El Alaoui, rue 153, 14010  KENITRA",
        "phone": "05 34 19 72 90",
        "location": "https://www.telecontact.ma/plan-acces/pharmacie-el-gueddari-/1782600/kenitra",
        "city": "Kénitra"
    },
    {
        "name": "Pharmacie El Kouweiti",
        "address": "lotiss. El Wafa, Souk Sebt Saknia KENITRA",
        "phone": "05 37 39 24 20",
        "location": "https://www.telecontact.ma/plan-acces/pharmacie-el-kouweiti-/3286295/kenitra",
        "city": "Kénitra"
    },
    {
        "name": "Pharmacie El Mkhalif",
        "address": "227, rue Ain Sebaa , 9065  KENITRA",
        "phone": "05 37 38 45 88",
        "location": "",
        "city": "Kénitra"
    },
    {
        "name": "Pharmacie El Mssalla",
        "address": "hay Saknia, mag.1 imm.14 allée du parc KENITRA",
        "phone": "06 61 09 71 24",
        "location": "https://www.telecontact.ma/plan-acces/pharmacie-el-mssalla-/3330612/kenitra",
        "city": "Kénitra"
    },
    {
        "name": "Pharmacie ElAmal",
        "address": "hay Saknia, gpe El Hana n°31, 14000  KENITRA",
        "phone": "05 37 38 04 19",
        "location": "https://www.telecontact.ma/plan-acces/pharmacie-elamal-/1169900/kenitra",
        "city": "Kénitra"
    },
    {
        "name": "Pharmacie Elandalous",
        "address": "427, bd Bacha Abdelhamid El Alaoui , 14010  KENITRA",
        "phone": "05 37 38 00 56",
        "location": "https://www.telecontact.ma/plan-acces/pharmacie-elandalous-/2102554/kenitra",
        "city": "Kénitra"
    },
    {
        "name": "Pharmacie Elfath",
        "address": "hay El Fath, rue 194, Saknia, 14050  KENITRA",
        "phone": "05 37 38 02 82",
        "location": "https://www.telecontact.ma/plan-acces/pharmacie-elfath-/1624600/kenitra",
        "city": "Kénitra"
    },
    {
        "name": "Pharmacie Elhaouzia",
        "address": "60 H, hay El Haouzia  KENITRA",
        "phone": "05 37 35 37 38",
        "location": "https://www.telecontact.ma/plan-acces/pharmacie-elhaouzia-/3019905/kenitra",
        "city": "Kénitra"
    },
    {
        "name": "Pharmacie ElHilal",
        "address": "hay Arrahma, Pam 2, 14000  KENITRA",
        "phone": "05 37 38 66 71",
        "location": "https://www.telecontact.ma/plan-acces/pharmacie-elhilal-/3120859/kenitra",
        "city": "Kénitra"
    },
    {
        "name": "Pharmacie Elhouria",
        "address": "rue Bir Anzarane ang. 45, 14000  KENITRA",
        "phone": "05 37 37 35 90",
        "location": "https://www.telecontact.ma/plan-acces/pharmacie-elhouria-/0306300/kenitra",
        "city": "Kénitra"
    },
    {
        "name": "Pharmacie ElKasba",
        "address": "Cité Kasbah, Mehdia KENITRA",
        "phone": "05 37 38 84 01",
        "location": "https://www.telecontact.ma/plan-acces/pharmacie-elkasba-/3023267/kenitra",
        "city": "Kénitra"
    },
    {
        "name": "Pharmacie Sophia",
        "address": "1763, lotiss. El Wafa, souk Sebt Saknia, 14050  KENITRA",
        "phone": "05 37 39 20 03",
        "location": "https://www.telecontact.ma/plan-acces/pharmacie-sophia-/3080399/kenitra",
        "city": "Kénitra"
    },
    {
        "name": "Pharmacie Tahiri",
        "address": "279, hay Bir Rami Ouest  KENITRA",
        "phone": "05 37 32 41 14",
        "location": "https://www.telecontact.ma/plan-acces/pharmacie-tahiri-/3283817/kenitra",
        "city": "Kénitra"
    },
    {
        "name": "Pharmacie Taibia",
        "address": "lotiss. Brika, n°346 q. TaibIa KENITRA",
        "phone": "05 37 36 25 00",
        "location": "https://www.telecontact.ma/plan-acces/pharmacie-taibia-/3332166/kenitra",
        "city": "Kénitra"
    },
    {
        "name": "Pharmacie Taissir",
        "address": "lotiss. Tissir, Gh 20, imm. 121, mag. 19 KENITRA",
        "phone": "05 37 30 81 94",
        "location": "https://www.telecontact.ma/plan-acces/pharmacie-taissir-/9002221/kenitra",
        "city": "Kénitra"
    },
    {
        "name": "Pharmacie Takaddoum",
        "address": "100, rue Sidi Mohammed , 14080  KENITRA",
        "phone": "05 37 37 99 97",
        "location": "https://www.telecontact.ma/plan-acces/pharmacie-takaddoum-/1782800/kenitra",
        "city": "Kénitra"
    },
    {
        "name": "Pharmacie Tariq",
        "address": "hay Al Maghrib Al Arabi, bloc D n°553 KENITRA",
        "phone": "05 37 36 55 75",
        "location": "https://www.telecontact.ma/plan-acces/pharmacie-tariq-/3285589/kenitra",
        "city": "Kénitra"
    },
    {
        "name": "Pharmacie Tolbix",
        "address": "hay Ouled Oujih, lot.154, bloc F/D 2, 14080  KENITRA",
        "phone": "05 37 35 22 41",
        "location": "https://www.telecontact.ma/plan-acces/pharmacie-tolbix-/2194633/kenitra",
        "city": "Kénitra"
    },
    {
        "name": "Pharmacie Touijar",
        "address": "26, rue Hammam lif, khabbazate, 14000  KENITRA",
        "phone": "05 37 37 62 43",
        "location": "https://www.telecontact.ma/plan-acces/pharmacie-touijar-/0307700/kenitra",
        "city": "Kénitra"
    },
    {
        "name": "Pharmacie Tourabi",
        "address": "713, lotiss. le Vallon  KENITRA",
        "phone": "05 37 31 67 63",
        "location": "https://www.telecontact.ma/plan-acces/pharmacie-tourabi-/9009442/kenitra",
        "city": "Kénitra"
    },
    {
        "name": "Pharmacie Train Medina",
        "address": "z.i Petite Gare, rue 24 n° 37, 14010  KENITRA",
        "phone": "05 37 36 64 22",
        "location": "https://www.telecontact.ma/plan-acces/pharmacie-train-medina-/3118575/kenitra",
        "city": "Kénitra"
    },
    {
        "name": "Pharmacie Universelle",
        "address": "66 Bis, bd Youssef Ibn Tachfine , 14000  KENITRA",
        "phone": "05 37 37 18 88",
        "location": "https://www.telecontact.ma/plan-acces/pharmacie-universelle-/2175905/kenitra",
        "city": "Kénitra"
    },
    {
        "name": "Pharmacie Venezia",
        "address": "1196, lotiss. Ismailia  KENITRA",
        "phone": "05 37 35 50 65",
        "location": "https://www.telecontact.ma/plan-acces/pharmacie-venezia-/3118660/kenitra",
        "city": "Kénitra"
    },
    {
        "name": "Pharmacie Yaacoub",
        "address": "385, lotiss. Andalous, Ouled Aarfa Saknia KENITRA",
        "phone": "05 37 39 17 94",
        "location": "https://www.telecontact.ma/plan-acces/pharmacie-yaacoub-/3287591/kenitra",
        "city": "Kénitra"
    },
    {
        "name": "Pharmacie Youssef",
        "address": "1777, lotiss. Ismailia, rte de Mehdia KENITRA",
        "phone": "05 37 35 16 05",
        "location": "https://www.telecontact.ma/plan-acces/pharmacie-youssef-/3062022/kenitra",
        "city": "Kénitra"
    },
    {
        "name": "Pharmacie Zakat",
        "address": "hay Al Maghrib Al Arabi, bloc A1 lot. 125, 14080  KENITRA",
        "phone": "05 37 37 49 37",
        "location": "https://www.telecontact.ma/plan-acces/pharmacie-zakat-/2194896/kenitra",
        "city": "Kénitra"
    },
    {
        "name": "Pharmacie Zehour",
        "address": "hay Ouled Oujih, lot 447, bloc D, 14080  KENITRA",
        "phone": "05 37 35 35 98",
        "location": "https://www.telecontact.ma/plan-acces/pharmacie-zehour-/3023350/kenitra",
        "city": "Kénitra"
    },
    {
        "name": "Pharmacie Zouhair",
        "address": "hay Saknia, lot Wafaa KENITRA",
        "phone": "05 37 38 34 36",
        "location": "https://www.telecontact.ma/plan-acces/pharmacie-zouhair-/3313059/kenitra",
        "city": "Kénitra"
    },
    {
        "name": "La Grande  Pharmacie",
        "address": "62, bd Mohamed Diouri , 14000  KENITRA",
        "phone": "05 37 37 10 46",
        "location": "https://www.telecontact.ma/plan-acces/la-grande-pharmacie-/1479100/kenitra",
        "city": "Kénitra"
    },
    {
        "name": "Pharmacie 20 Août",
        "address": "hay El Wafa 4, n°110 KENITRA",
        "phone": "05 34 42 51 90",
        "location": "https://www.telecontact.ma/plan-acces/pharmacie-20-ao-t-/3332157/kenitra",
        "city": "Kénitra"
    },
    {
        "name": "Pharmacie Abbouda",
        "address": "159, lotiss. Al Bassatine, al Fouarat KENITRA",
        "phone": "05 37 38 55 46",
        "location": "https://www.telecontact.ma/plan-acces/pharmacie-abbouda-/3317260/kenitra",
        "city": "Kénitra"
    },
    {
        "name": "Pharmacie Bassine",
        "address": "995, hay Bir Rami Est, Jnane 2 KENITRA",
        "phone": "06 91 82 08 89",
        "location": "https://www.telecontact.ma/plan-acces/pharmacie-bassine-/3317221/kenitra",
        "city": "Kénitra"
    },
    {
        "name": "Pharmacie Bella",
        "address": "Marjane Kénitra , B 9 km 120,29, 14000  KENITRA",
        "phone": "05 37 39 56 39",
        "location": "https://www.telecontact.ma/plan-acces/pharmacie-bella-/3344508/kenitra",
        "city": "Kénitra"
    },
    {
        "name": "Pharmacie Benhaddou",
        "address": "rte de Mehdia  KENITRA",
        "phone": "05 37 32 20 49",
        "location": "https://www.telecontact.ma/plan-acces/pharmacie-benhaddou-/3331387/kenitra",
        "city": "Kénitra"
    },
    {
        "name": "Pharmacie Benlahsen",
        "address": "12, rue Ibn Batouta, ville haute, 14000  KENITRA",
        "phone": "05 37 37 03 50",
        "location": "https://www.telecontact.ma/plan-acces/pharmacie-benlahsen-/1479500/kenitra",
        "city": "Kénitra"
    },
    {
        "name": "Pharmacie bir Rami",
        "address": "rue Zemzem, Mimosa, Bir Rami, 14020  KENITRA",
        "phone": "05 37 37 45 90",
        "location": "https://www.telecontact.ma/plan-acces/pharmacie-bir-rami-/2173110/kenitra",
        "city": "Kénitra"
    },
    {
        "name": "Pharmacie Bismillah",
        "address": "77, lotiss. Chaâbi, Atlas 2 KENITRA",
        "phone": "05 37 38 35 76",
        "location": "https://www.telecontact.ma/plan-acces/pharmacie-bismillah-/3023408/kenitra",
        "city": "Kénitra"
    },
    {
        "name": "Pharmacie Boushaba",
        "address": "Ain Aris , n°127 KENITRA",
        "phone": "06 96 32 08 78",
        "location": "https://www.telecontact.ma/plan-acces/pharmacie-boushaba-/3345590/kenitra",
        "city": "Kénitra"
    },
    {
        "name": "Pharmacie Centrale",
        "address": "Pl. Chouhada, rue 33, n°28 bis, diour Saniak KENITRA",
        "phone": "05 37 37 80 80",
        "location": "https://www.telecontact.ma/plan-acces/pharmacie-centrale-/2159750/kenitra",
        "city": "Kénitra"
    },
    {
        "name": "Pharmacie centre ville",
        "address": "bd Mohamed Diouri ang. rue Med. Amraoui, 14000  KENITRA",
        "phone": "05 37 37 67 29",
        "location": "https://www.telecontact.ma/plan-acces/pharmacie-centre-ville-/3019637/kenitra",
        "city": "Kénitra"
    },
    {
        "name": "Pharmacie Chark Al Madina",
        "address": "lotiss. El Wafa, 1320, local n°4 KENITRA",
        "phone": "06 08 55 61 41",
        "location": "https://www.telecontact.ma/plan-acces/pharmacie-chark-al-madina-/3344661/kenitra",
        "city": "Kénitra"
    },
    {
        "name": "Pharmacie Cherkaoui",
        "address": "hay Al Irchad, rue 13 n°29, Maamora, 14050  KENITRA",
        "phone": "05 37 39 24 44",
        "location": "https://www.telecontact.ma/plan-acces/pharmacie-cherkaoui-/3019609/kenitra",
        "city": "Kénitra"
    },
    {
        "name": "Pharmacie Chiadmi",
        "address": "lotiss. Al Amal 2, o/Arfa n°2475 KENITRA",
        "phone": "05 37 39 22 83",
        "location": "https://www.telecontact.ma/plan-acces/pharmacie-chiadmi-/3312076/kenitra",
        "city": "Kénitra"
    },
    {
        "name": "Pharmacie la Capitale du Gharb",
        "address": "lot El Haouzia , bloc F n° 176 o.Oujih KENITRA",
        "phone": "05 37 35 68 42",
        "location": "https://www.telecontact.ma/plan-acces/pharmacie-la-capitale-du-gharb-/3331385/kenitra",
        "city": "Kénitra"
    },
    {
        "name": "Pharmacie La Cigogne",
        "address": "quartier la Cigogne, rue 330 n°14, 14000  KENITRA",
        "phone": "08 08 37 47 50",
        "location": "https://www.telecontact.ma/plan-acces/pharmacie-la-cigogne-/3267155/kenitra",
        "city": "Kénitra"
    },
    {
        "name": "Pharmacie la Cité",
        "address": "rte Antara, lot n°2, 14080  KENITRA",
        "phone": "05 37 37 90 71",
        "location": "https://www.telecontact.ma/plan-acces/pharmacie-la-cit-/2194903/kenitra",
        "city": "Kénitra"
    },
    {
        "name": "Pharmacie la Domitienne",
        "address": "48, bd Mohamed El Qorri, imm. Maha, n°5, 14020  KENITRA",
        "phone": "05 37 37 32 53",
        "location": "https://www.telecontact.ma/plan-acces/pharmacie-la-domitienne-/3062015/kenitra",
        "city": "Kénitra"
    },
    {
        "name": "Pharmacie la Fontaine - Ennafoura",
        "address": "401, bd Mohammed V , 14000  KENITRA",
        "phone": "05 37 37 32 81",
        "location": "https://www.telecontact.ma/plan-acces/pharmacie-la-fontaine-ennafoura-/0307200/kenitra",
        "city": "Kénitra"
    },
    {
        "name": "Pharmacie la Fôret",
        "address": "rue de l' Hôpital Idrissi  KENITRA",
        "phone": "05 37 37 22 80",
        "location": "https://www.telecontact.ma/plan-acces/pharmacie-la-f-ret-/3313370/kenitra",
        "city": "Kénitra"
    },
    {
        "name": "Pharmacie la Grande Avenue",
        "address": "hay Bir Rami Sud, lot 446 z.i Rocade, 14000  KENITRA",
        "phone": "05 37 37 54 30",
        "location": "https://www.telecontact.ma/plan-acces/pharmacie-la-grande-avenue-/3313366/kenitra",
        "city": "Kénitra"
    },
    {
        "name": "Pharmacie La Nouvelle Ville de Sidi Taibi",
        "address": "Sidi Taibi, douar Ouled Nsar Gharbia KENITRA",
        "phone": "05 37 37 34 47",
        "location": "https://www.telecontact.ma/plan-acces/pharmacie-la-nouvelle-ville-de-sidi-taibi-/3226474/kenitra",
        "city": "Kénitra"
    },
    {
        "name": "Pharmacie Hay AlWafa",
        "address": "lotiss. El Wafa 4, lot 1266 KENITRA",
        "phone": "05 37 38 50 51",
        "location": "https://www.telecontact.ma/plan-acces/pharmacie-hay-alwafa-/3192284/kenitra",
        "city": "Kénitra"
    },
    {
        "name": "Pharmacie Hay Essalam",
        "address": "hay Essalam, rue F n°9 KENITRA",
        "phone": "05 37 36 62 38",
        "location": "https://www.telecontact.ma/plan-acces/pharmacie-hay-essalam-/3061617/kenitra",
        "city": "Kénitra"
    },
    {
        "name": "Pharmacie Hay Meriem",
        "address": "411, hay Lalla Meriem  KENITRA",
        "phone": "05 37 39 24 42",
        "location": "https://www.telecontact.ma/plan-acces/pharmacie-hay-meriem-/3038907/kenitra",
        "city": "Kénitra"
    },
    {
        "name": "Pharmacie Hay Tbib",
        "address": "Hay Nasma, rue 144 ang rue 196, 14010  KENITRA",
        "phone": "05 37 38 41 63",
        "location": "https://www.telecontact.ma/plan-acces/pharmacie-hay-tbib-/3023428/kenitra",
        "city": "Kénitra"
    }
]