[
  {
    "name": "Pharmacie Sala Al Jadida",
    "address": "4, bd Moulay Youssef, Sala AlJadida, 11100  SALE",
    "phone": "05 37 53 03 15",
    "location": "https://www.telecontact.ma/plan-acces/pharmacie-sala-al-jadida-/2223962/sale",
    "city": "Salé"
  },
  {
    "name": "Pharmacie Salah Eddine ElAyoubi",
    "address": "1, lotiss. Dadda, rte de Mehdia, 11160  SALE",
    "phone": "05 37 88 58 59",
    "location": "https://www.telecontact.ma/plan-acces/pharmacie-salah-eddine-elayoubi-/3103119/sale",
    "city": "Salé"
  },
  {
    "name": "Pharmacie Salaheddine",
    "address": "468, rue Ait Sghir, hay Inbiaat SALE",
    "phone": "05 37 81 04 03",
    "location": "https://www.telecontact.ma/plan-acces/pharmacie-salaheddine-/3228046/sale",
    "city": "Salé"
  },
  {
    "name": "Pharmacie Salam",
    "address": "24, bd Abderrahim Bouabid, sect. 7 Hay Essalam, 11030  SALE",
    "phone": "05 37 80 10 44",
    "location": "https://www.telecontact.ma/plan-acces/pharmacie-salam-/1624100/sale",
    "city": "Salé"
  },
  {
    "name": "Pharmacie Salima",
    "address": "180, bd Six Novembre, hay Al Kods, Tabriquet, 11000  SALE",
    "phone": "05 37 86 11 11",
    "location": "https://www.telecontact.ma/plan-acces/pharmacie-salima-/3208883/sale",
    "city": "Salé"
  },
  {
    "name": "Pharmacie Saloua",
    "address": "13, rue Azilal, hay Oued Eddahab, 11080  SALE",
    "phone": "05 37 81 35 30",
    "location": "https://www.telecontact.ma/plan-acces/pharmacie-saloua-/3040575/sale",
    "city": "Salé"
  },
  {
    "name": "Pharmacie Salwane",
    "address": "z.i. Sidi Brahim, Boulaajoul SALE",
    "phone": "05 37 87 22 89",
    "location": "https://www.telecontact.ma/plan-acces/pharmacie-salwane-/3345851/sale",
    "city": "Salé"
  },
  {
    "name": "Pharmacie Sbihi",
    "address": "rue Sidi Bel Abbes, résid. AlKhouzama SALE",
    "phone": "05 37 78 68 58",
    "location": "https://www.telecontact.ma/plan-acces/pharmacie-sbihi-/3199915/sale",
    "city": "Salé"
  },
  {
    "name": "Pharmacie Sebati",
    "address": "lotiss. Bouchouk , lot.102 n°2 résid. Younes Laayayda SALE",
    "phone": "05 37 78 03 21",
    "location": "https://www.telecontact.ma/plan-acces/pharmacie-sebati-/3335521/sale",
    "city": "Salé"
  },
  {
    "name": "Pharmacie Seffar",
    "address": "17, lotiss. Anssar, rte Kenitra, Sidi Moussa, 11000  SALE",
    "phone": "05 37 78 01 64",
    "location": "https://www.telecontact.ma/plan-acces/pharmacie-seffar-/2149895/sale",
    "city": "Salé"
  },
  {
    "name": "Pharmacie Semlali",
    "address": "47, lotiss. Kasbah des Gnaouas, Sidi Moussa SALE",
    "phone": "05 37 88 65 20",
    "location": "https://www.telecontact.ma/plan-acces/pharmacie-semlali-/3199918/sale",
    "city": "Salé"
  },
  {
    "name": "Pharmacie Serji",
    "address": "101 Bis, bd Allal Ben Abdallah, Kariat Ouled Moussa, 11100  SALE",
    "phone": "05 37 83 17 77",
    "location": "https://www.telecontact.ma/plan-acces/pharmacie-serji-/2209820/sale",
    "city": "Salé"
  },
  {
    "name": "Pharmacie Shaimi",
    "address": "douar Lbrahma 1, lotis. bayt Sakan SALE",
    "phone": "06 11 78 28 87",
    "location": "https://www.telecontact.ma/plan-acces/pharmacie-shaimi-/3345857/sale",
    "city": "Salé"
  },
  {
    "name": "Pharmacie Shams",
    "address": "lotiss. Mabrouka, résid. Shams I bloc B n°2 Sidi Moussa, 11060  SALE",
    "phone": "05 37 78 41 09",
    "location": "https://www.telecontact.ma/plan-acces/pharmacie-shams-/3212903/sale",
    "city": "Salé"
  },
  {
    "name": "Pharmacie Shems",
    "address": "4, bd Zarbia, Hssain SALE",
    "phone": "05 37 83 52 89",
    "location": "https://www.telecontact.ma/plan-acces/pharmacie-shems-/3199916/sale",
    "city": "Salé"
  },
  {
    "name": "Pharmacie Sid El Ghouti",
    "address": "hay Essalam, sect. 4 n°711, 11000  SALE",
    "phone": "05 37 81 49 70",
    "location": "https://www.telecontact.ma/plan-acces/pharmacie-sid-el-ghouti-/2209812/sale",
    "city": "Salé"
  },
  {
    "name": "Pharmacie Sidi Abdellah Ben Hassoun",
    "address": "141, rue Imouzzer, hay Inbiât SALE",
    "phone": "05 37 80 06 08",
    "location": "https://www.telecontact.ma/plan-acces/pharmacie-sidi-abdellah-ben-hassoun-/3215170/sale",
    "city": "Salé"
  },
  {
    "name": "Pharmacie sidi Benacher",
    "address": "hay Arrahma, sect. E lotiss. Nassim mag. 3, 11070  SALE",
    "phone": "05 37 87 16 58",
    "location": "https://www.telecontact.ma/plan-acces/pharmacie-sidi-benacher-/2158862/sale",
    "city": "Salé"
  },
  {
    "name": "Pharmacie Sidi Daoui",
    "address": "1064, rue Oulmas, Hay Oued Eddahab, 11090  SALE",
    "phone": "05 37 87 27 03",
    "location": "https://www.telecontact.ma/plan-acces/pharmacie-sidi-daoui-/2209788/sale",
    "city": "Salé"
  },
  {
    "name": "Pharmacie Sidi Moussa",
    "address": "Saniat Jebli, rue 4 n°71 Sidi Moussa, 11060  SALE",
    "phone": "05 37 78 26 54",
    "location": "https://www.telecontact.ma/plan-acces/pharmacie-sidi-moussa-/1501400/sale",
    "city": "Salé"
  },
  {
    "name": "Pharmacie Redouane Santé",
    "address": "1, rue Midelt, oued Eddahab Sidi Daoui SALE",
    "phone": "05 37 82 13 88",
    "location": "https://www.telecontact.ma/plan-acces/pharmacie-redouane-sant-/9014684/sale",
    "city": "Salé"
  },
  {
    "name": "Pharmacie Rida",
    "address": "9, bd Lalla Amina, lotiss. Sabounji, 11010  SALE",
    "phone": "05 37 86 36 80",
    "location": "https://www.telecontact.ma/plan-acces/pharmacie-rida-/1623900/sale",
    "city": "Salé"
  },
  {
    "name": "Pharmacie Rihab",
    "address": "rte Outa Hssaine, résid. Rihab, imm. 1 mag. 2 Sala Al Jadida, 11100  SALE",
    "phone": "05 37 53 26 53",
    "location": "https://www.telecontact.ma/plan-acces/pharmacie-rihab-/3159325/sale",
    "city": "Salé"
  },
  {
    "name": "Pharmacie Rima",
    "address": "64 Bis, bd Boukraâ, hay Cheikh M'fadel, 11020  SALE",
    "phone": "05 37 80 31 25",
    "location": "https://www.telecontact.ma/plan-acces/pharmacie-rima-/3038647/sale",
    "city": "Salé"
  },
  {
    "name": "Pharmacie Rizk",
    "address": "7, bd Six Novembre , 11000  SALE",
    "phone": "05 37 86 20 27",
    "location": "https://www.telecontact.ma/plan-acces/pharmacie-rizk-/1791600/sale",
    "city": "Salé"
  },
  {
    "name": "Pharmacie Rostane",
    "address": "759, bd du Sahara, sect. 8, 11000  SALE",
    "phone": "05 37 86 31 86",
    "location": "https://www.telecontact.ma/plan-acces/pharmacie-rostane-/1621900/sale",
    "city": "Salé"
  },
  {
    "name": "Pharmacie Ryad Salé",
    "address": "1395, lotiss. Said Hajji, rte. de Kénitra, 11160  SALE",
    "phone": "05 37 87 97 65",
    "location": "https://www.telecontact.ma/plan-acces/pharmacie-ryad-sal-/3211425/sale",
    "city": "Salé"
  },
  {
    "name": "Pharmacie Sabi",
    "address": "144, lotiss. Sabi, sect. Nahda, Laayayda SALE",
    "phone": "05 37 87 63 56",
    "location": "https://www.telecontact.ma/plan-acces/pharmacie-sabi-/3291049/sale",
    "city": "Salé"
  },
  {
    "name": "Pharmacie Safaa",
    "address": "2, Bab Chaâfa, résid. AlWouroud, imm.C 22, 11060  SALE",
    "phone": "05 37 78 46 92",
    "location": "https://www.telecontact.ma/plan-acces/pharmacie-safaa-/2159039/sale",
    "city": "Salé"
  },
  {
    "name": "Pharmacie Safir",
    "address": "hay Essalam, sect. 12, n°1584, 11030  SALE",
    "phone": "05 37 80 28 46",
    "location": "https://www.telecontact.ma/plan-acces/pharmacie-safir-/2142541/sale",
    "city": "Salé"
  },
  {
    "name": "Pharmacie Saïd Hajji",
    "address": "839, lotiss. Said Hajji, rte. de Kénitra, 11160  SALE",
    "phone": "05 37 87 87 97",
    "location": "https://www.telecontact.ma/plan-acces/pharmacie-sa-d-hajji-/3062503/sale",
    "city": "Salé"
  },
  {
    "name": "Pharmacie Sakani",
    "address": "rte de Kénitra, quartier Bouchouk résidence sakani 2 SALE",
    "phone": "05 37 84 60 70",
    "location": "https://www.telecontact.ma/plan-acces/pharmacie-sakani-/3316427/sale",
    "city": "Salé"
  },
  {
    "name": "Pharmacie Bab Chaafa",
    "address": "207, bd Hassan 1er , 11150  SALE",
    "phone": "05 37 78 26 46",
    "location": "https://www.telecontact.ma/plan-acces/pharmacie-bab-chaafa-/0320500/sale",
    "city": "Salé"
  },
  {
    "name": "Pharmacie Bab Sebta",
    "address": "2, bd Abderrahman El Kadiri, Bab Sebta, 11060  SALE",
    "phone": "05 37 88 35 73",
    "location": "https://www.telecontact.ma/plan-acces/pharmacie-bab-sebta-/1619800/sale",
    "city": "Salé"
  },
  {
    "name": "Pharmacie Badr",
    "address": "2 Bis, bd Ibn El Haytem, cité Ouad Eddahab, 11090  SALE",
    "phone": "05 37 87 51 12",
    "location": "https://www.telecontact.ma/plan-acces/pharmacie-badr-/3059119/sale",
    "city": "Salé"
  },
  {
    "name": "Pharmacie Basmala",
    "address": "rue Taza, hay Alamal Sect. 4 Karia, 11100  SALE",
    "phone": "05 37 83 32 76",
    "location": "https://www.telecontact.ma/plan-acces/pharmacie-basmala-/3199791/sale",
    "city": "Salé"
  },
  {
    "name": "Pharmacie Bayti",
    "address": "1, bd Mohammed V, G 28, Bayti 2 , Sala AlJadida, 11100  SALE",
    "phone": "05 37 53 33 59",
    "location": "https://www.telecontact.ma/plan-acces/pharmacie-bayti-/3199790/sale",
    "city": "Salé"
  },
  {
    "name": "Pharmacie Beau Soleil",
    "address": "219, lotiss. Chams, Laayayda al mohit SALE",
    "phone": "05 37 82 30 72",
    "location": "https://www.telecontact.ma/plan-acces/pharmacie-beau-soleil-/3314990/sale",
    "city": "Salé"
  },
  {
    "name": "Pharmacie Beauséjour",
    "address": "8, bd Al Moukaouama , 11150  SALE",
    "phone": "05 37 78 06 86",
    "location": "https://www.telecontact.ma/plan-acces/pharmacie-beaus-jour-/1781000/sale",
    "city": "Salé"
  },
  {
    "name": "Pharmacie Belhaj",
    "address": "bd Lalla Asmaa, lotiss. Hajia n°19, 11010  SALE",
    "phone": "05 37 86 16 48",
    "location": "https://www.telecontact.ma/plan-acces/pharmacie-belhaj-/2209818/sale",
    "city": "Salé"
  },
  {
    "name": "Pharmacie Belhassar",
    "address": "douar Oulad El Ayachi, Bouknadel SALE",
    "phone": "06 42 67 42 63",
    "location": "https://www.telecontact.ma/plan-acces/pharmacie-belhassar-/3345860/sale",
    "city": "Salé"
  },
  {
    "name": "Pharmacie Belmaati",
    "address": "01, rte de Kénitra, imm 154, portes de salé SALE",
    "phone": "05 37 82 31 86",
    "location": "https://www.telecontact.ma/plan-acces/pharmacie-belmaati-/3319287/sale",
    "city": "Salé"
  },
  {
    "name": "Pharmacie Belyamani",
    "address": "10, bd Abderrahim Bouabid , 11000  SALE",
    "phone": "05 37 85 32 96",
    "location": "https://www.telecontact.ma/plan-acces/pharmacie-belyamani-/2134756/sale",
    "city": "Salé"
  },
  {
    "name": "Pharmacie Bennani",
    "address": "lotiss. El Malki, Imm. 39, n°1 Hors, bab sebta, 11060  SALE",
    "phone": "05 37 78 13 47",
    "location": "https://www.telecontact.ma/plan-acces/pharmacie-bennani-/3103151/sale",
    "city": "Salé"
  },
  {
    "name": "Pharmacie Bensaid",
    "address": "23 Bis, bd Prince Sidi Mohamed, sect. 2 Kariat Ouled Moussa, 11100  SALE",
    "phone": "05 37 82 90 53",
    "location": "https://www.telecontact.ma/plan-acces/pharmacie-bensaid-/2150309/sale",
    "city": "Salé"
  },
  {
    "name": "Pharmacie Bernoussi Ameur",
    "address": "15, av. Ain Barka  SALE",
    "phone": "05 37 87 49 34",
    "location": "https://www.telecontact.ma/plan-acces/pharmacie-bernoussi-ameur-/9017504/sale",
    "city": "Salé"
  },
  {
    "name": "Pharmacie Bettana",
    "address": "1, bd Al Wattassiyine, Kharrouba, 11040  SALE",
    "phone": "05 37 80 05 56",
    "location": "https://www.telecontact.ma/plan-acces/pharmacie-bettana-/1501300/sale",
    "city": "Salé"
  },
  {
    "name": "Pharmacie Bismillah",
    "address": "5, hay Oued Eddahab, rue Al Arabi mag. 3 et 4 Layayda SALE",
    "phone": "05 37 50 00 32",
    "location": "https://www.telecontact.ma/plan-acces/pharmacie-bismillah-/3316432/sale",
    "city": "Salé"
  },
  {
    "name": "Pharmacie Boubcher",
    "address": "236, bd Al Amal, hay Oued Dahab SALE",
    "phone": "05 37 87 10 37",
    "location": "https://www.telecontact.ma/plan-acces/pharmacie-boubcher-/3312022/sale",
    "city": "Salé"
  },
  {
    "name": "Pharmacie Bouchouk",
    "address": "3, rue Bouchouk, Rte Kénitra, résid. Salah-Eddine imm.4 SALE",
    "phone": "05 37 84 66 91",
    "location": "https://www.telecontact.ma/plan-acces/pharmacie-bouchouk-/3315186/sale",
    "city": "Salé"
  },
  {
    "name": "Pharmacie Bouzid",
    "address": "6, bd Al Wattassiyine, Bettana, 11040  SALE",
    "phone": "05 37 78 24 16",
    "location": "https://www.telecontact.ma/plan-acces/pharmacie-bouzid-/1791700/sale",
    "city": "Salé"
  },
  {
    "name": "Pharmacie centrale",
    "address": "44 A, bd Mohamed Ben El Hassan El Ouazzani ang Hassan II, C 4, Sala Al Jadida, 11100  SALE",
    "phone": "05 37 53 06 91",
    "location": "https://www.telecontact.ma/plan-acces/pharmacie-centrale-/3018507/sale",
    "city": "Salé"
  },
  {
    "name": "Pharmacie du quartier industriel",
    "address": "581, bd Ibn El Khatib ang. Ouarkziz dar Hamra, 11070  SALE",
    "phone": "05 37 87 10 69",
    "location": "https://www.telecontact.ma/plan-acces/pharmacie-du-quartier-industriel-/2149048/sale",
    "city": "Salé"
  },
  {
    "name": "Pharmacie du village",
    "address": "55, bd Hassan II, Karia Ouled Moussa, 11100  SALE",
    "phone": "05 37 82 95 00",
    "location": "https://www.telecontact.ma/plan-acces/pharmacie-du-village-/2158783/sale",
    "city": "Salé"
  },
  {
    "name": "Pharmacie Dyar",
    "address": "9, bd Mohammed V, Tabriquet, 11000  SALE",
    "phone": "05 37 86 03 01",
    "location": "https://www.telecontact.ma/plan-acces/pharmacie-dyar-/2195234/sale",
    "city": "Salé"
  },
  {
    "name": "Pharmacie El Amrani",
    "address": "hay Diour Essalam  SALE",
    "phone": "05 37 74 29 75",
    "location": "https://www.telecontact.ma/plan-acces/pharmacie-el-amrani-/9014624/sale",
    "city": "Salé"
  },
  {
    "name": "Pharmacie El Faraj",
    "address": "4 Bis, bd Moulay Rachid, sect. 4 cité Baraka Kariat ouled Moussa, 11100  SALE",
    "phone": "05 37 83 05 90",
    "location": "https://www.telecontact.ma/plan-acces/pharmacie-el-faraj-/2195340/sale",
    "city": "Salé"
  },
  {
    "name": "Pharmacie El Idrissi",
    "address": "quartier Sidi Brahim Boulaajoul, douar Labrahma SALE",
    "phone": "05 37 87 32 73",
    "location": "https://www.telecontact.ma/plan-acces/pharmacie-el-idrissi-/3335469/sale",
    "city": "Salé"
  },
  {
    "name": "Pharmacie El Mehdi",
    "address": "103, douar Lhaj Lhoucine, Hssaine, Sala Al Jadida, 11100  SALE",
    "phone": "05 37 53 36 36",
    "location": "https://www.telecontact.ma/plan-acces/pharmacie-el-mehdi-/3103460/sale",
    "city": "Salé"
  },
  {
    "name": "Pharmacie El Menzeh",
    "address": "51, bd Massira El Khadra, Blad Ben Daoud, Bettana, 11040  SALE",
    "phone": "05 37 80 37 68",
    "location": "https://www.telecontact.ma/plan-acces/pharmacie-el-menzeh-/2148248/sale",
    "city": "Salé"
  },
  {
    "name": "Pharmacie ElAmana",
    "address": "hay Essalam, bloc 16, Sect. 11 n°349, 11030  SALE",
    "phone": "05 37 80 76 06",
    "location": "https://www.telecontact.ma/plan-acces/pharmacie-elamana-/1619700/sale",
    "city": "Salé"
  },
  {
    "name": "Pharmacie ElAndalib",
    "address": "26, rue El Oulja, hay Karima, 11000  SALE",
    "phone": "05 37 86 14 37",
    "location": "https://www.telecontact.ma/plan-acces/pharmacie-elandalib-/1791800/sale",
    "city": "Salé"
  },
  {
    "name": "Pharmacie Elbahja",
    "address": "bd du Sahara, mosquée AlQods sect.5, Hay Salam, 11030  SALE",
    "phone": "05 37 80 78 55",
    "location": "https://www.telecontact.ma/plan-acces/pharmacie-elbahja-/2134753/sale",
    "city": "Salé"
  },
  {
    "name": "Pharmacie ElBrahma",
    "address": "5, rte El Fouarat, Douar ElBrahma SALE",
    "phone": "05 37 87 54 23",
    "location": "https://www.telecontact.ma/plan-acces/pharmacie-elbrahma-/3199893/sale",
    "city": "Salé"
  },
  {
    "name": "Pharmacie ElFarah",
    "address": "hay Arrahma, sect. E n°927, 11070  SALE",
    "phone": "05 37 87 35 24",
    "location": "https://www.telecontact.ma/plan-acces/pharmacie-elfarah-/2223946/sale",
    "city": "Salé"
  },
  {
    "name": "Pharmacie Elfath",
    "address": "bd Al Ordone, Tabriquet, 11000  SALE",
    "phone": "05 37 86 19 88",
    "location": "https://www.telecontact.ma/plan-acces/pharmacie-elfath-/0322000/sale",
    "city": "Salé"
  },
  {
    "name": "Pharmacie ElFilali",
    "address": "30, lotiss. El Jaouhari, rte de Kénitra, zone Sbihi, 11160  SALE",
    "phone": "05 37 78 23 88",
    "location": "https://www.telecontact.ma/plan-acces/pharmacie-elfilali-/3126054/sale",
    "city": "Salé"
  },
  {
    "name": "Pharmacie ElHassani",
    "address": "147, rue Jabal Bounasser, sect. 8 kariat Ouled Moussa, 11100  SALE",
    "phone": "05 37 83 29 65",
    "location": "https://www.telecontact.ma/plan-acces/pharmacie-elhassani-/3038629/sale",
    "city": "Salé"
  },
  {
    "name": "Pharmacie Elismaïli",
    "address": "hay Rostane, rue 1 n°29, 11000  SALE",
    "phone": "05 37 86 21 97",
    "location": "https://www.telecontact.ma/plan-acces/pharmacie-elisma-li-/2135255/sale",
    "city": "Salé"
  },
  {
    "name": "Pharmacie Elixir",
    "address": "bd Hssaine, résid. Bayti 1, imm. J n°1, Sala Al Jadida, 11100  SALE",
    "phone": "05 37 53 13 04",
    "location": "https://www.telecontact.ma/plan-acces/pharmacie-elixir-/3199896/sale",
    "city": "Salé"
  },
  {
    "name": "Pharmacie ElJoulane",
    "address": "2, bd Joulane, sect. 3 hay Essafae Kariat ouled Moussa, 11100  SALE",
    "phone": "05 37 83 08 56",
    "location": "https://www.telecontact.ma/plan-acces/pharmacie-eljoulane-/3040559/sale",
    "city": "Salé"
  },
  {
    "name": "Pharmacie Elkaria",
    "address": "33, bd Moulay Abdallah, Kariat Ouled Moussa, 11000  SALE",
    "phone": "05 37 82 90 40",
    "location": "https://www.telecontact.ma/plan-acces/pharmacie-elkaria-/0322200/sale",
    "city": "Salé"
  },
  {
    "name": "Pharmacie Elkhemis",
    "address": "37, bd Ben Guerrir, Bettana, 11040  SALE",
    "phone": "05 37 80 98 21",
    "location": "https://www.telecontact.ma/plan-acces/pharmacie-elkhemis-/2134748/sale",
    "city": "Salé"
  },
  {
    "name": "Pharmacie ElMamounia",
    "address": "11, hay Mamounia, Tabriquet, 11000  SALE",
    "phone": "05 37 86 47 57",
    "location": "https://www.telecontact.ma/plan-acces/pharmacie-elmamounia-/2195293/sale",
    "city": "Salé"
  },
  {
    "name": "Pharmacie ElMasjid",
    "address": "bd Abderrahim Bouabid, sect. 6, hay Essalam, 11030  SALE",
    "phone": "05 37 80 39 68",
    "location": "https://www.telecontact.ma/plan-acces/pharmacie-elmasjid-/2149305/sale",
    "city": "Salé"
  },
  {
    "name": "Pharmacie ElMazza",
    "address": "13 Bis, hay El Mazza, Laayada, 11090  SALE",
    "phone": "05 37 87 42 77",
    "location": "https://www.telecontact.ma/plan-acces/pharmacie-elmazza-/3199898/sale",
    "city": "Salé"
  },
  {
    "name": "Pharmacie Mouad ben Jabal",
    "address": "q. Brahma  SALE",
    "phone": "06 67 27 85 14",
    "location": "https://www.telecontact.ma/plan-acces/pharmacie-mouad-ben-jabal-/3335564/sale",
    "city": "Salé"
  },
  {
    "name": "Pharmacie Moulay Idriss",
    "address": "lotiss. Yazamane I, imm. n°1 appt. n°1 hay Chmâou rte. Mehdia, 11160  SALE",
    "phone": "05 37 88 31 32",
    "location": "https://www.telecontact.ma/plan-acces/pharmacie-moulay-idriss-/3211420/sale",
    "city": "Salé"
  },
  {
    "name": "Pharmacie Moussadikine",
    "address": "525 Bis, rue Dar Essalam, av. Ennasr, 11090  SALE",
    "phone": "05 37 87 39 44",
    "location": "https://www.telecontact.ma/plan-acces/pharmacie-moussadikine-/3199911/sale",
    "city": "Salé"
  },
  {
    "name": "Pharmacie Mrissa",
    "address": "3, rue Bacha Sbihi, q. R'mel, 11150  SALE",
    "phone": "05 37 84 52 99",
    "location": "https://www.telecontact.ma/plan-acces/pharmacie-mrissa-/2223950/sale",
    "city": "Salé"
  },
  {
    "name": "Pharmacie My Ismail",
    "address": "hay Moulay Ismail, sect.1, n°73, Kariat Oulad Moussa, 11000  SALE",
    "phone": "05 37 80 08 74",
    "location": "https://www.telecontact.ma/plan-acces/pharmacie-my-ismail-/2150441/sale",
    "city": "Salé"
  },
  {
    "name": "Pharmacie Naciri",
    "address": "bd Al Salwa, sect.4B Tabriquet, 11000  SALE",
    "phone": "05 37 86 18 18",
    "location": "https://www.telecontact.ma/plan-acces/pharmacie-naciri-/0324800/sale",
    "city": "Salé"
  },
  {
    "name": "Pharmacie Nadem",
    "address": "hay Essalam, sect. 11 extension n°564, 11030  SALE",
    "phone": "05 37 81 49 94",
    "location": "https://www.telecontact.ma/plan-acces/pharmacie-nadem-/2222825/sale",
    "city": "Salé"
  },
  {
    "name": "Pharmacie Nahda",
    "address": "807, bd Al Andalouss, Sect. 3, hay Essalam, 11030  SALE",
    "phone": "05 37 80 04 35",
    "location": "https://www.telecontact.ma/plan-acces/pharmacie-nahda-/3078354/sale",
    "city": "Salé"
  },
  {
    "name": "Pharmacie Nassiha",
    "address": "hay Arrahma, sect. E n°1217, rue Afourar, 11070  SALE",
    "phone": "05 37 87 46 94",
    "location": "https://www.telecontact.ma/plan-acces/pharmacie-nassiha-/3103114/sale",
    "city": "Salé"
  },
  {
    "name": "Pharmacie Nejjar",
    "address": "hay Essalam, c.com. imm. Alwahda, 11030  SALE",
    "phone": "05 37 80 71 41",
    "location": "https://www.telecontact.ma/plan-acces/pharmacie-nejjar-/1501500/sale",
    "city": "Salé"
  },
  {
    "name": "Pharmacie Nour Al Qarawiyyin",
    "address": "rue Hssaine, lot Reda SALE",
    "phone": "05 37 82 92 50",
    "location": "https://www.telecontact.ma/plan-acces/pharmacie-nour-al-qarawiyyin-/3312047/sale",
    "city": "Salé"
  },
  {
    "name": "Pharmacie Nouvelle",
    "address": "58, bd Lalla Asmaa, Tabriquet, 11010  SALE",
    "phone": "05 37 86 38 25",
    "location": "https://www.telecontact.ma/plan-acces/pharmacie-nouvelle-/1501200/sale",
    "city": "Salé"
  },
  {
    "name": "Pharmacie Orientale",
    "address": "hay Arrahma, imm Cherkaoui, n°5, av. Mohamed V, 11000  SALE",
    "phone": "05 37 87 14 12",
    "location": "https://www.telecontact.ma/plan-acces/pharmacie-orientale-/3208881/sale",
    "city": "Salé"
  },
  {
    "name": "Pharmacie Oued Eddahab",
    "address": "266, bd Ibn El Haytem , 11080  SALE",
    "phone": "05 37 87 12 81",
    "location": "https://www.telecontact.ma/plan-acces/pharmacie-oued-eddahab-/2172141/sale",
    "city": "Salé"
  },
  {
    "name": "Pharmacie Ouled Laayachi",
    "address": "rue Jabal El Ayachi  SALE",
    "phone": "05 37 86 16 00",
    "location": "https://www.telecontact.ma/plan-acces/pharmacie-ouled-laayachi-/3345869/sale",
    "city": "Salé"
  },
  {
    "name": "Pharmacie Oum Al Kora",
    "address": "110 Bis, bd Youssef Ibn Tachfine, hay Cheikh Lamfadal, 11020  SALE",
    "phone": "05 37 87 13 43",
    "location": "https://www.telecontact.ma/plan-acces/pharmacie-oum-al-kora-/2186485/sale",
    "city": "Salé"
  },
  {
    "name": "Pharmacie Oum hani",
    "address": "Hors Bab Sebta, Grina n°45, 11060  SALE",
    "phone": "05 37 88 13 52",
    "location": "https://www.telecontact.ma/plan-acces/pharmacie-oum-hani-/3018316/sale",
    "city": "Salé"
  },
  {
    "name": "Pharmacie Oum Salma",
    "address": "29, lotiss. Oued Eddahab, lot Salma SALE",
    "phone": "06 62 24 44 42",
    "location": "https://www.telecontact.ma/plan-acces/pharmacie-oum-salma-/9014625/sale",
    "city": "Salé"
  },
  {
    "name": "Pharmacie Parc Addoha",
    "address": "Projet al hadika doha , imm 75 magasin 1 laayayda oued dahab SALE",
    "phone": "05 37 88 73 73",
    "location": "https://www.telecontact.ma/plan-acces/pharmacie-parc-addoha-/3315000/sale",
    "city": "Salé"
  },
  {
    "name": "Pharmacie Pasteur",
    "address": "bd Mohammed V, résid. AlBouchra, imm. B, mag. 8, 11000  SALE",
    "phone": "05 37 85 51 41",
    "location": "https://www.telecontact.ma/plan-acces/pharmacie-pasteur-/3040582/sale",
    "city": "Salé"
  },
  {
    "name": "Pharmacie Al Najda",
    "address": "hay El Qods, hay Mazda SALE",
    "phone": "05 37 87 40 63",
    "location": "https://www.telecontact.ma/plan-acces/pharmacie-al-najda-/3291059/sale",
    "city": "Salé"
  },
  {
    "name": "Pharmacie Al Osra",
    "address": "lotiss. Rommane, rue 3 n° 50 Sidi Moussa, 11060  SALE",
    "phone": "05 37 88 02 42",
    "location": "https://www.telecontact.ma/plan-acces/pharmacie-al-osra-/2209826/sale",
    "city": "Salé"
  },
  {
    "name": "Pharmacie Al Quds Safae",
    "address": "513, rue Tilimsane , sect. Al Qouds SALE",
    "phone": "05 37 87 47 61",
    "location": "https://www.telecontact.ma/plan-acces/pharmacie-al-quds-safae-/3312028/sale",
    "city": "Salé"
  },
  {
    "name": "Pharmacie Al Wafae",
    "address": "177, bd Moulay Rachid, lotiss. Al Wafae, hay Al Farah, 11100  SALE",
    "phone": "05 37 83 27 71",
    "location": "https://www.telecontact.ma/plan-acces/pharmacie-al-wafae-/2223956/sale",
    "city": "Salé"
  },
  {
    "name": "Pharmacie AlAbawayne",
    "address": "222, bd Amir Sidi Mohamed Ben Abdallah, hay Safae Sect. 3 , Karia, 11100  SALE",
    "phone": "05 37 83 58 06",
    "location": "https://www.telecontact.ma/plan-acces/pharmacie-alabawayne-/3199772/sale",
    "city": "Salé"
  },
  {
    "name": "Pharmacie AlAbridi",
    "address": "rte Outa Hssaine, Ouled Hlal, Sala Al Jadida, 11100  SALE",
    "phone": "05 37 83 18 86",
    "location": "https://www.telecontact.ma/plan-acces/pharmacie-alabridi-/3062664/sale",
    "city": "Salé"
  },
  {
    "name": "Pharmacie AlAdarissa",
    "address": "hay Arrahma, sect. A n°1052, 11070  SALE",
    "phone": "05 37 87 00 26",
    "location": "https://www.telecontact.ma/plan-acces/pharmacie-aladarissa-/3159312/sale",
    "city": "Salé"
  },
  {
    "name": "Pharmacie AlAhbab",
    "address": "67, rue Oued Eddahab, sect. E hay Rahma, 11070  SALE",
    "phone": "05 37 87 05 70",
    "location": "https://www.telecontact.ma/plan-acces/pharmacie-alahbab-/3176132/sale",
    "city": "Salé"
  },
  {
    "name": "Pharmacie AlAndalous",
    "address": "19, bd Abdelkrim Khattabi, hay Essalam, 11030  SALE",
    "phone": "05 37 80 30 30",
    "location": "https://www.telecontact.ma/plan-acces/pharmacie-alandalous-/2149034/sale",
    "city": "Salé"
  },
  {
    "name": "Pharmacie AlAnwar",
    "address": "215, rue Sidi Allal El Bahraoui, Hay Inbiat, 11000  SALE",
    "phone": "05 37 80 31 72",
    "location": "https://www.telecontact.ma/plan-acces/pharmacie-alanwar-/2150313/sale",
    "city": "Salé"
  },
  {
    "name": "Pharmacie AlAraf",
    "address": "26 Bis, rue Al Fadl, hay Chfaa, 11030  SALE",
    "phone": "05 37 80 87 24",
    "location": "https://www.telecontact.ma/plan-acces/pharmacie-alaraf-/2135257/sale",
    "city": "Salé"
  },
  {
    "name": "Pharmacie AlArz",
    "address": "1130, lotiss. Villas, Sala AlJadida SALE",
    "phone": "05 37 53 37 77",
    "location": "https://www.telecontact.ma/plan-acces/pharmacie-alarz-/3199774/sale",
    "city": "Salé"
  },
  {
    "name": "Pharmacie AlAyadia",
    "address": "26, Saniat El Moussaoui, hors bab Chaâfa, 11060  SALE",
    "phone": "05 37 78 21 30",
    "location": "https://www.telecontact.ma/plan-acces/pharmacie-alayadia-/3137653/sale",
    "city": "Salé"
  },
  {
    "name": "Pharmacie AlAyoubi",
    "address": "277, rue Tazouta, av Marmoucha Saniat Ben Daoud Sidi Moussa, 11060  SALE",
    "phone": "05 37 88 05 61",
    "location": "https://www.telecontact.ma/plan-acces/pharmacie-alayoubi-/2158630/sale",
    "city": "Salé"
  },
  {
    "name": "Pharmacie AlBaraka",
    "address": "rte de Kénitra \", km 2, Lot. AlBaraka n°3 imm. \"\"F1\"\"\", 11060  SALE",
    "phone": "05 37 84 59 59",
    "location": "https://www.telecontact.ma/plan-acces/pharmacie-albaraka-/3105804/sale",
    "city": "Salé"
  },
  {
    "name": "Pharmacie AlBasma",
    "address": "51, bd Moulay Ali Cherif , 11150  SALE",
    "phone": "05 37 78 55 91",
    "location": "https://www.telecontact.ma/plan-acces/pharmacie-albasma-/2156766/sale",
    "city": "Salé"
  },
  {
    "name": "Pharmacie AlBorj",
    "address": "20, bd Annacer, saniat Chlih, 11060  SALE",
    "phone": "05 37 88 02 12",
    "location": "https://www.telecontact.ma/plan-acces/pharmacie-alborj-/2158627/sale",
    "city": "Salé"
  },
  {
    "name": "Pharmacie Alfadila",
    "address": "hay Arrahma, sect. B n°9, 11080  SALE",
    "phone": "05 37 87 45 95",
    "location": "https://www.telecontact.ma/plan-acces/pharmacie-alfadila-/3040555/sale",
    "city": "Salé"
  },
  {
    "name": "Pharmacie AlHambra",
    "address": "31, lotiss. Maktouba, Hssaine, Sala Al Jadida, 11100  SALE",
    "phone": "05 37 83 33 44",
    "location": "https://www.telecontact.ma/plan-acces/pharmacie-alhambra-/3103049/sale",
    "city": "Salé"
  },
  {
    "name": "Pharmacie AlHamd",
    "address": "hay Arrahma, sect. A n°366 rue Yasmine SALE",
    "phone": "05 37 87 10 67",
    "location": "https://www.telecontact.ma/plan-acces/pharmacie-alhamd-/3126083/sale",
    "city": "Salé"
  },
  {
    "name": "Pharmacie Petit Prince",
    "address": "1087, hay Essalam, secteur 8 SALE",
    "phone": "05 37 81 02 31",
    "location": "https://www.telecontact.ma/plan-acces/pharmacie-petit-prince-/3316047/sale",
    "city": "Salé"
  },
  {
    "name": "Pharmacie populaire de Salé",
    "address": "828, bd Ibn El Haytem, Hay Inbiat, 11080  SALE",
    "phone": "05 37 80 77 64",
    "location": "https://www.telecontact.ma/plan-acces/pharmacie-populaire-de-sal-/1623100/sale",
    "city": "Salé"
  },
  {
    "name": "Pharmacie Principale",
    "address": "allée Said Hajji ang. rue My Said Alaoui, Sala Al Jadida, 11100  SALE",
    "phone": "05 37 53 02 63",
    "location": "https://www.telecontact.ma/plan-acces/pharmacie-principale-/2209546/sale",
    "city": "Salé"
  },
  {
    "name": "Pharmacie Printemps",
    "address": "3, bd Mohammed V ang. rue bab Taza, Kariat Ouled Moussa SALE",
    "phone": "05 37 82 86 86",
    "location": "https://www.telecontact.ma/plan-acces/pharmacie-printemps-/2172719/sale",
    "city": "Salé"
  },
  {
    "name": "Pharmacie Redouane",
    "address": "1, rue Tandrara, hay Oued Dahab SALE",
    "phone": "05 37 87 40 24",
    "location": "https://www.telecontact.ma/plan-acces/pharmacie-redouane-/3199913/sale",
    "city": "Salé"
  },
  {
    "name": "Pharmacie Elouedghiri",
    "address": "hay Essalam, sect. 11 bis n°227, 11030  SALE",
    "phone": "05 37 80 14 79",
    "location": "https://www.telecontact.ma/plan-acces/pharmacie-elouedghiri-/2157795/sale",
    "city": "Salé"
  },
  {
    "name": "Pharmacie Eloumnia",
    "address": "28, bd Riad, hay el baraka sect. 4 - kariat ouled Moussa, 11100  SALE",
    "phone": "05 37 82 99 89",
    "location": "https://www.telecontact.ma/plan-acces/pharmacie-eloumnia-/2186493/sale",
    "city": "Salé"
  },
  {
    "name": "Pharmacie Ennasr",
    "address": "17, rue Jabal Habri, hay Annasr sect. 8, Kariat ouled Moussa, 11100  SALE",
    "phone": "05 37 82 86 20",
    "location": "https://www.telecontact.ma/plan-acces/pharmacie-ennasr-/3126113/sale",
    "city": "Salé"
  },
  {
    "name": "Pharmacie Errai",
    "address": "lotiss. Safaa 3, n°1 Hssain Sala AlJadida, 11100  SALE",
    "phone": "05 37 82 97 60",
    "location": "https://www.telecontact.ma/plan-acces/pharmacie-errai-/3211772/sale",
    "city": "Salé"
  },
  {
    "name": "Pharmacie Essaâda",
    "address": "hay Essalam, bloc 6 sect. 9 n°65, 11030  SALE",
    "phone": "05 37 80 00 17",
    "location": "https://www.telecontact.ma/plan-acces/pharmacie-essa-da-/2147539/sale",
    "city": "Salé"
  },
  {
    "name": "Pharmacie Essaf",
    "address": "42, rue Bouamrou Nejjar ang. rue Essaf, 11150  SALE",
    "phone": "05 37 84 48 70",
    "location": "https://www.telecontact.ma/plan-acces/pharmacie-essaf-/2185064/sale",
    "city": "Salé"
  },
  {
    "name": "Pharmacie Essalmani",
    "address": "2, bd Ibn El Haytem, cité Ouad Eddahab, 11090  SALE",
    "phone": "05 37 87 25 36",
    "location": "https://www.telecontact.ma/plan-acces/pharmacie-essalmani-/2209803/sale",
    "city": "Salé"
  },
  {
    "name": "Pharmacie Essania",
    "address": "hay Annasr, rue 15 n°79, Sidi Moussa, 11060  SALE",
    "phone": "05 37 88 57 59",
    "location": "https://www.telecontact.ma/plan-acces/pharmacie-essania-/3059114/sale",
    "city": "Salé"
  },
  {
    "name": "Pharmacie Essouhoul",
    "address": "127, bd Moulay Abdelhafid, sect.4, ElKaria, 11100  SALE",
    "phone": "05 37 82 97 76",
    "location": "https://www.telecontact.ma/plan-acces/pharmacie-essouhoul-/2209500/sale",
    "city": "Salé"
  },
  {
    "name": "Pharmacie Etissir",
    "address": "19, bd de la Base Aérienne, Hay Inbiat, 11080  SALE",
    "phone": "05 37 80 00 65",
    "location": "https://www.telecontact.ma/plan-acces/pharmacie-etissir-/3040585/sale",
    "city": "Salé"
  },
  {
    "name": "Pharmacie Fadl Allah",
    "address": "40, lotiss. Fadl Allah, rte de Kénitra, 11160  SALE",
    "phone": "05 37 88 55 18",
    "location": "https://www.telecontact.ma/plan-acces/pharmacie-fadl-allah-/3126079/sale",
    "city": "Salé"
  },
  {
    "name": "Pharmacie Familiale",
    "address": "4, rue Ain Louh, hay Inbiaâte, 11080  SALE",
    "phone": "05 37 80 90 49",
    "location": "https://www.telecontact.ma/plan-acces/pharmacie-familiale-/2148251/sale",
    "city": "Salé"
  },
  {
    "name": "Pharmacie Fennich",
    "address": "7, bd Hassan 1er , 11150  SALE",
    "phone": "05 37 88 39 32",
    "location": "https://www.telecontact.ma/plan-acces/pharmacie-fennich-/2196537/sale",
    "city": "Salé"
  },
  {
    "name": "Pharmacie Fethi",
    "address": "39, rue Al Manzel, sect. 4 hay Al Amal, Karia, 11100  SALE",
    "phone": "05 37 83 15 03",
    "location": "https://www.telecontact.ma/plan-acces/pharmacie-fethi-/3040557/sale",
    "city": "Salé"
  },
  {
    "name": "Pharmacie les Orangers",
    "address": "bd Boukraâ ang. rue les orangers, Cheikh Lamfadel, 11020  SALE",
    "phone": "05 37 80 31 34",
    "location": "https://www.telecontact.ma/plan-acces/pharmacie-les-orangers-/3040566/sale",
    "city": "Salé"
  },
  {
    "name": "Pharmacie les Pyramides",
    "address": "6, bd Sidi Mohamed Ben Abdallah, hay Nahda Kariat ouled Moussa, 11100  SALE",
    "phone": "05 37 83 19 69",
    "location": "https://www.telecontact.ma/plan-acces/pharmacie-les-pyramides-/2195406/sale",
    "city": "Salé"
  },
  {
    "name": "Pharmacie Lotissement Abdellah",
    "address": "lotiss. Sidi Abdallah, Laayayda Oued Dahab n°1254 SALE",
    "phone": "05 50 04 25 79",
    "location": "https://www.telecontact.ma/plan-acces/pharmacie-lotissement-abdellah-/3312024/sale",
    "city": "Salé"
  },
  {
    "name": "Pharmacie Loubane",
    "address": "557, Arsat Salé, ancienne rte de Mehdia, 11160  SALE",
    "phone": "05 37 87 88 39",
    "location": "https://www.telecontact.ma/plan-acces/pharmacie-loubane-/3103302/sale",
    "city": "Salé"
  },
  {
    "name": "Pharmacie Loubna",
    "address": "hay Arrahma, sect. A n°83, rue Ouard, 11070  SALE",
    "phone": "05 37 87 19 22",
    "location": "https://www.telecontact.ma/plan-acces/pharmacie-loubna-/3040590/sale",
    "city": "Salé"
  },
  {
    "name": "Pharmacie Lyazid",
    "address": "hay Moulay Ismail, sect. 1 n°319, 11140  SALE",
    "phone": "05 37 80 82 01",
    "location": "https://www.telecontact.ma/plan-acces/pharmacie-lyazid-/3103062/sale",
    "city": "Salé"
  },
  {
    "name": "Pharmacie Maamora",
    "address": "douar Rouhiyine, n°9 Laayayda, 11060  SALE",
    "phone": "05 37 83 39 95",
    "location": "https://www.telecontact.ma/plan-acces/pharmacie-maamora-/3199909/sale",
    "city": "Salé"
  },
  {
    "name": "Pharmacie Macha Allah",
    "address": "1229, rue Fkih Ben Salah, hay ElInbiat, 11080  SALE",
    "phone": "05 33 06 16 64",
    "location": "https://www.telecontact.ma/plan-acces/pharmacie-macha-allah-/3213871/sale",
    "city": "Salé"
  },
  {
    "name": "Pharmacie Maghreb Arabe",
    "address": "1223, lotiss. Villas, Sala Al Jadida SALE",
    "phone": "05 37 53 13 10",
    "location": "https://www.telecontact.ma/plan-acces/pharmacie-maghreb-arabe-/3291063/sale",
    "city": "Salé"
  },
  {
    "name": "Pharmacie Mail Central",
    "address": "1, bd Al Wahda, imm. 1A Sala AlJadida SALE",
    "phone": "05 37 53 33 27",
    "location": "https://www.telecontact.ma/plan-acces/pharmacie-mail-central-/3199910/sale",
    "city": "Salé"
  },
  {
    "name": "Pharmacie Marjana",
    "address": "85, lotiss. Said Hajji , 11160  SALE",
    "phone": "05 37 87 72 19",
    "location": "https://www.telecontact.ma/plan-acces/pharmacie-marjana-/3211422/sale",
    "city": "Salé"
  },
  {
    "name": "Pharmacie Marzouka",
    "address": "34, lotiss. Marzouka, hay chmaou, 11160  SALE",
    "phone": "05 37 84 31 04",
    "location": "https://www.telecontact.ma/plan-acces/pharmacie-marzouka-/3017927/sale",
    "city": "Salé"
  },
  {
    "name": "Pharmacie Mehdia",
    "address": "2234, hay Moulay Ismail, Kariat ouled Moussa, sect. 3, 11140  SALE",
    "phone": "05 37 80 48 52",
    "location": "https://www.telecontact.ma/plan-acces/pharmacie-mehdia-/3126136/sale",
    "city": "Salé"
  },
  {
    "name": "Pharmacie Meriem",
    "address": "90, rue Sidi Yahya, hay Inbiat, 11080  SALE",
    "phone": "05 37 80 60 07",
    "location": "https://www.telecontact.ma/plan-acces/pharmacie-meriem-/2195271/sale",
    "city": "Salé"
  },
  {
    "name": "Pharmacie Mimosa",
    "address": "21 B, bd Moulay Youssef, mag. 4 Sala Aljadida, 11100  SALE",
    "phone": "05 37 53 24 44",
    "location": "https://www.telecontact.ma/plan-acces/pharmacie-mimosa-/3038638/sale",
    "city": "Salé"
  },
  {
    "name": "Pharmacie Mohammed",
    "address": "q. Brahma  SALE",
    "phone": "05 37 52 41 41",
    "location": "https://www.telecontact.ma/plan-acces/pharmacie-mohammed-/3335518/sale",
    "city": "Salé"
  },
  {
    "name": "Pharmacie Mohammed V",
    "address": "6, bd Mohammed V, Tabriquet, 11000  SALE",
    "phone": "05 37 86 32 94",
    "location": "https://www.telecontact.ma/plan-acces/pharmacie-mohammed-v-/3158422/sale",
    "city": "Salé"
  },
  {
    "name": "Pharmacie Asmaa",
    "address": "290, rue Midelt, Sidi Daoui Oued Eddahab SALE",
    "phone": "05 37 52 23 36",
    "location": "",
    "city": "Salé"
  },
  {
    "name": "Pharmacie Assabil",
    "address": "542, lotiss. Villas, Sala Al Jadida SALE",
    "phone": "05 37 53 53 56",
    "location": "https://www.telecontact.ma/plan-acces/pharmacie-assabil-/3291065/sale",
    "city": "Salé"
  },
  {
    "name": "Pharmacie Assahil",
    "address": "bd Ahmed Rguibat, mag.3 Sidi Moussa, 11060  SALE",
    "phone": "05 37 78 14 59",
    "location": "https://www.telecontact.ma/plan-acces/pharmacie-assahil-/3019665/sale",
    "city": "Salé"
  },
  {
    "name": "Pharmacie Assahra Al Maghribia",
    "address": "83 Bis, bd Moulay Taib El Alaoui, saniat Cherkaoui, mag.1 sidi Moussa SALE",
    "phone": "05 37 84 55 41",
    "location": "https://www.telecontact.ma/plan-acces/pharmacie-assahra-al-maghribia-/3228026/sale",
    "city": "Salé"
  },
  {
    "name": "Pharmacie Assanawbar",
    "address": "87, rue Toufah, hay Oued Adahab, 11090  SALE",
    "phone": "05 37 87 44 13",
    "location": "https://www.telecontact.ma/plan-acces/pharmacie-assanawbar-/3018167/sale",
    "city": "Salé"
  },
  {
    "name": "Pharmacie Asseha",
    "address": "76, lotiss. Annaim, mag. n°4, Addoha, tabriquet, 11010  SALE",
    "phone": "05 37 85 42 43",
    "location": "https://www.telecontact.ma/plan-acces/pharmacie-asseha-/3211497/sale",
    "city": "Salé"
  },
  {
    "name": "Pharmacie Athènes",
    "address": "3, bd Abderrahim Bouabid, C4, Sala Al Jadida, 11100  SALE",
    "phone": "05 37 53 18 27",
    "location": "https://www.telecontact.ma/plan-acces/pharmacie-ath-nes-/3038631/sale",
    "city": "Salé"
  },
  {
    "name": "Pharmacie Atlas AlKabir",
    "address": "hay Essalam, sect. 2 n°449, 11030  SALE",
    "phone": "05 37 80 66 66",
    "location": "https://www.telecontact.ma/plan-acces/pharmacie-atlas-alkabir-/3199789/sale",
    "city": "Salé"
  },
  {
    "name": "Pharmacie Attadaoui",
    "address": "hay Sidi Mohamed Ben Abdellah  SALE",
    "phone": "06 10 12 85 35",
    "location": "https://www.telecontact.ma/plan-acces/pharmacie-attadaoui-/3332256/sale",
    "city": "Salé"
  },
  {
    "name": "Pharmacie Attawba",
    "address": "29, hay Oued Eddahab, lotis. Salma Laayayda SALE",
    "phone": "05 37 87 69 49",
    "location": "",
    "city": "Salé"
  },
  {
    "name": "Pharmacie Avenue Loujada",
    "address": "42, bd Oujada, Sidi Moussa, 11060  SALE",
    "phone": "05 37 88 05 45",
    "location": "https://www.telecontact.ma/plan-acces/pharmacie-avenue-loujada-/3078252/sale",
    "city": "Salé"
  },
  {
    "name": "Pharmacie Ayoub Naji",
    "address": "2, lotiss. Sidi Abdallah, n°2727 sud de Layayda SALE",
    "phone": "05 37 87 58 89",
    "location": "https://www.telecontact.ma/plan-acces/pharmacie-ayoub-naji-/3312043/sale",
    "city": "Salé"
  },
  {
    "name": "Pharmacie Azzahra",
    "address": "7 Bis, bd Oued Arromane, hay Inbiat, 11080  SALE",
    "phone": "05 37 80 71 00",
    "location": "https://www.telecontact.ma/plan-acces/pharmacie-azzahra-/2195284/sale",
    "city": "Salé"
  },
  {
    "name": "Pharmacie Azzedine",
    "address": "rte de Mehdia, Bouchouk résid. Annajah 2 imm.17 n°1 SALE",
    "phone": "05 37 84 91 95",
    "location": "https://www.telecontact.ma/plan-acces/pharmacie-azzedine-/3336346/sale",
    "city": "Salé"
  },
  {
    "name": "Pharmacie Baassine",
    "address": "3, lotiss zahrat Attakwa , Gh 4 Mag C4-18 SALE",
    "phone": "05 37 82 37 31",
    "location": "https://www.telecontact.ma/plan-acces/pharmacie-baassine-/9014938/sale",
    "city": "Salé"
  },
  {
    "name": "Pharmacie Bab Arrayan",
    "address": "60, rue Aviation, rue Al Izdhar sect. Nahda Layayda SALE",
    "phone": "05 37 87 14 84",
    "location": "https://www.telecontact.ma/plan-acces/pharmacie-bab-arrayan-/3312038/sale",
    "city": "Salé"
  },
  {
    "name": "Pharmacie Dahab",
    "address": "47, bd Six Novembre, hay Hourya, Tabriquet, 11070  SALE",
    "phone": "05 37 85 12 91",
    "location": "https://www.telecontact.ma/plan-acces/pharmacie-dahab-/2135483/sale",
    "city": "Salé"
  },
  {
    "name": "Pharmacie Dahabi",
    "address": "7, bd Moulay Abdallah, sect. 5, hay Ennahda, Karia, 11100  SALE",
    "phone": "05 37 83 24 88",
    "location": "https://www.telecontact.ma/plan-acces/pharmacie-dahabi-/3062468/sale",
    "city": "Salé"
  },
  {
    "name": "Pharmacie Dar Dmana",
    "address": "39, bd Massira El Khadra, Bettana, 11040  SALE",
    "phone": "05 37 80 06 00",
    "location": "https://www.telecontact.ma/plan-acces/pharmacie-dar-dmana-/2195402/sale",
    "city": "Salé"
  },
  {
    "name": "Pharmacie Dar El Yousr",
    "address": "hay Sidi Mohamed Ben Abdellah, lotiss.1038 SALE",
    "phone": "05 37 87 01 84",
    "location": "https://www.telecontact.ma/plan-acces/pharmacie-dar-el-yousr-/3332144/sale",
    "city": "Salé"
  },
  {
    "name": "Pharmacie Dar Shabab",
    "address": "hay Oued Dahab  SALE",
    "phone": "05 37 87 36 94",
    "location": "https://www.telecontact.ma/plan-acces/pharmacie-dar-shabab-/3312033/sale",
    "city": "Salé"
  },
  {
    "name": "Pharmacie de l'Aube",
    "address": "47, bd Abdelkhalek Torres , 11000  SALE",
    "phone": "05 37 85 56 00",
    "location": "https://www.telecontact.ma/plan-acces/pharmacie-de-l-aube-/2172742/sale",
    "city": "Salé"
  },
  {
    "name": "Pharmacie de l'étoile",
    "address": "27, bd Al Alaouyine, kariat Oulad Moussa, 11100  SALE",
    "phone": "05 37 82 93 19",
    "location": "https://www.telecontact.ma/plan-acces/pharmacie-de-l-toile-/2158831/sale",
    "city": "Salé"
  },
  {
    "name": "Pharmacie de l'hôpital",
    "address": "777, bd Ali Bnou Abi Taleb, sect. D, hay Errahma, 11070  SALE",
    "phone": "05 37 87 11 46",
    "location": "https://www.telecontact.ma/plan-acces/pharmacie-de-l-h-pital-/2150445/sale",
    "city": "Salé"
  },
  {
    "name": "Pharmacie de la Base",
    "address": "quartier la Base, 7/8/9 Bafra 1 SALE",
    "phone": "05 37 80 57 74",
    "location": "https://www.telecontact.ma/plan-acces/pharmacie-de-la-base-/3040628/sale",
    "city": "Salé"
  },
  {
    "name": "Pharmacie de la gare",
    "address": "bd Six Novembre, n°11, lot. Smara, Tabriquet, 11010  SALE",
    "phone": "05 37 85 11 44",
    "location": "https://www.telecontact.ma/plan-acces/pharmacie-de-la-gare-/2149044/sale",
    "city": "Salé"
  },
  {
    "name": "Pharmacie de la Place",
    "address": "2, rue Sinaa, secteur 1 Karia Ouled Moussa, 11100  SALE",
    "phone": "05 37 82 90 76",
    "location": "https://www.telecontact.ma/plan-acces/pharmacie-de-la-place-/1616700/sale",
    "city": "Salé"
  },
  {
    "name": "Pharmacie de la poste",
    "address": "pl. Bab Lekhmiss, av. 2 Mars, 11150  SALE",
    "phone": "05 37 78 14 05",
    "location": "https://www.telecontact.ma/plan-acces/pharmacie-de-la-poste-/0325800/sale",
    "city": "Salé"
  },
  {
    "name": "Pharmacie des Facultés",
    "address": "204, rue Hssaine, lot Mâamoura résid. Al Jamiâ SALE",
    "phone": "05 37 82 75 92",
    "location": "https://www.telecontact.ma/plan-acces/pharmacie-des-facult-s-/3310678/sale",
    "city": "Salé"
  },
  {
    "name": "Pharmacie Des Familles",
    "address": "104, bd El Qods, lot. Bellamine Mkinsia, 11060  SALE",
    "phone": "05 37 88 03 58",
    "location": "https://www.telecontact.ma/plan-acces/pharmacie-des-familles-/2209809/sale",
    "city": "Salé"
  },
  {
    "name": "Pharmacie des hôpitaux",
    "address": "rue Ibn Rochd, Pépinière, 11000  SALE",
    "phone": "05 37 85 38 58",
    "location": "https://www.telecontact.ma/plan-acces/pharmacie-des-h-pitaux-/2134743/sale",
    "city": "Salé"
  },
  {
    "name": "Pharmacie des Villas",
    "address": "lotiss. Villas, 885/C2 Sala Al Jadida SALE",
    "phone": "05 37 53 13 31",
    "location": "https://www.telecontact.ma/plan-acces/pharmacie-des-villas-/3291069/sale",
    "city": "Salé"
  },
  {
    "name": "Pharmacie Dispensaire",
    "address": "1842, lotiss. Said Hajji, rte. de Kénitra, 11160  SALE",
    "phone": "05 37 87 72 25",
    "location": "https://www.telecontact.ma/plan-acces/pharmacie-dispensaire-/3199801/sale",
    "city": "Salé"
  },
  {
    "name": "Pharmacie Dispensaire Bettana",
    "address": "4, rue Doukkala, Bettana, 102010  SALE",
    "phone": "05 37 80 64 49",
    "location": "https://www.telecontact.ma/plan-acces/pharmacie-dispensaire-bettana-/3214154/sale",
    "city": "Salé"
  },
  {
    "name": "Pharmacie Doha",
    "address": "673, lotiss. Said Hajji, local n°2 SALE",
    "phone": "05 37 87 75 20",
    "location": "https://www.telecontact.ma/plan-acces/pharmacie-doha-/3199806/sale",
    "city": "Salé"
  },
  {
    "name": "Pharmacie Douae",
    "address": "rue Al Arak, hay Cheikh Lamfadel SALE",
    "phone": "05 37 80 07 44",
    "location": "https://www.telecontact.ma/plan-acces/pharmacie-douae-/3247031/sale",
    "city": "Salé"
  },
  {
    "name": "Pharmacie AlMarwa",
    "address": "30, lotiss. El Farah, Hssain, Sala Al Jadida, 11100  SALE",
    "phone": "05 37 82 91 94",
    "location": "https://www.telecontact.ma/plan-acces/pharmacie-almarwa-/3103055/sale",
    "city": "Salé"
  },
  {
    "name": "Pharmacie AlMohit",
    "address": "lotiss. Said Hajji, lot. 1498 SALE",
    "phone": "05 37 87 87 96",
    "location": "https://www.telecontact.ma/plan-acces/pharmacie-almohit-/3199783/sale",
    "city": "Salé"
  },
  {
    "name": "Pharmacie AlMoutawakil",
    "address": "40 Bis, rue M'diq, hay ElKifah, Kariat Ouled Moussa, 11100  SALE",
    "phone": "05 37 83 10 22",
    "location": "https://www.telecontact.ma/plan-acces/pharmacie-almoutawakil-/3038641/sale",
    "city": "Salé"
  },
  {
    "name": "Pharmacie AlOfoq",
    "address": "24, lotiss. Ouled Belamine, Sidi Moussa, 11060  SALE",
    "phone": "05 37 84 39 78",
    "location": "https://www.telecontact.ma/plan-acces/pharmacie-alofoq-/3062678/sale",
    "city": "Salé"
  },
  {
    "name": "Pharmacie AlOmrane",
    "address": "52, bd Mediouna, Bettana, 11040  SALE",
    "phone": "05 37 78 07 77",
    "location": "https://www.telecontact.ma/plan-acces/pharmacie-alomrane-/2172214/sale",
    "city": "Salé"
  },
  {
    "name": "Pharmacie Alqods",
    "address": "32, bd Moulay Youssef , 11010  SALE",
    "phone": "05 37 86 26 71",
    "location": "https://www.telecontact.ma/plan-acces/pharmacie-alqods-/2149764/sale",
    "city": "Salé"
  },
  {
    "name": "Pharmacie Alwassat",
    "address": "33, bd Hassan II, Tabriquet, 11000  SALE",
    "phone": "05 37 86 51 88",
    "location": "https://www.telecontact.ma/plan-acces/pharmacie-alwassat-/3017888/sale",
    "city": "Salé"
  },
  {
    "name": "Pharmacie Alyasmine",
    "address": "530, bd Moulay Ismail, Sidi Moussa, 11060  SALE",
    "phone": "05 37 78 04 11",
    "location": "https://www.telecontact.ma/plan-acces/pharmacie-alyasmine-/3018148/sale",
    "city": "Salé"
  },
  {
    "name": "Pharmacie Amar",
    "address": "25, bd Mohammed V, lot. Nejar, 11000  SALE",
    "phone": "05 37 86 20 94",
    "location": "https://www.telecontact.ma/plan-acces/pharmacie-amar-/1791300/sale",
    "city": "Salé"
  },
  {
    "name": "Pharmacie Amer Kobra",
    "address": "rue Lbrahma  SALE",
    "phone": "05 37 87 52 15",
    "location": "https://www.telecontact.ma/plan-acces/pharmacie-amer-kobra-/3335308/sale",
    "city": "Salé"
  },
  {
    "name": "Pharmacie Amina",
    "address": "hay Moulay Ismail, sect. 2 n°792, 11140  SALE",
    "phone": "05 37 80 55 59",
    "location": "https://www.telecontact.ma/plan-acces/pharmacie-amina-/2223953/sale",
    "city": "Salé"
  },
  {
    "name": "Pharmacie Amri",
    "address": "2, rue Chefchaouen ang. rue Hassian, Tabriquet, 11000  SALE",
    "phone": "05 37 85 50 92",
    "location": "https://www.telecontact.ma/plan-acces/pharmacie-amri-/3103138/sale",
    "city": "Salé"
  },
  {
    "name": "Pharmacie Amzar",
    "address": "1, rue Guezzara, hay Bouchouk SALE",
    "phone": "05 37 82 25 42",
    "location": "https://www.telecontact.ma/plan-acces/pharmacie-amzar-/3199784/sale",
    "city": "Salé"
  },
  {
    "name": "Pharmacie Annaim",
    "address": "29, lotiss. Annaim, mag. n°2 tabriquet, 11010  SALE",
    "phone": "05 37 78 63 13",
    "location": "https://www.telecontact.ma/plan-acces/pharmacie-annaim-/3211499/sale",
    "city": "Salé"
  },
  {
    "name": "Pharmacie Annajah",
    "address": "2, rte de Mehdia, hay Bouchouk SALE",
    "phone": "05 37 50 04 50",
    "location": "https://www.telecontact.ma/plan-acces/pharmacie-annajah-/3317035/sale",
    "city": "Salé"
  },
  {
    "name": "Pharmacie Annour",
    "address": "126, bd Ibn El Haytem, hay Inbiât, 11080  SALE",
    "phone": "05 37 80 05 17",
    "location": "https://www.telecontact.ma/plan-acces/pharmacie-annour-/2172727/sale",
    "city": "Salé"
  },
  {
    "name": "Pharmacie Anour Al Mohammadi",
    "address": "341, rue Ait Abdallah , Al Quods, Laayayda SALE",
    "phone": "05 37 86 88 51",
    "location": "https://www.telecontact.ma/plan-acces/pharmacie-anour-al-mohammadi-/3335467/sale",
    "city": "Salé"
  },
  {
    "name": "Pharmacie Anwal",
    "address": "11, rue Goulmime, av Base Aérienne, 11080  SALE",
    "phone": "05 37 87 57 50",
    "location": "https://www.telecontact.ma/plan-acces/pharmacie-anwal-/3199785/sale",
    "city": "Salé"
  },
  {
    "name": "Pharmacie Arcades",
    "address": "37, lotiss. Alami, rte Kénitra, Sidi Moussa, 11060  SALE",
    "phone": "05 37 88 26 54",
    "location": "https://www.telecontact.ma/plan-acces/pharmacie-arcades-/3199786/sale",
    "city": "Salé"
  },
  {
    "name": "Pharmacie Ariad",
    "address": "bd Mohammed V, résid. El Banafsej n°4 SALE",
    "phone": "05 37 86 27 34",
    "location": "https://www.telecontact.ma/plan-acces/pharmacie-ariad-/3140572/sale",
    "city": "Salé"
  },
  {
    "name": "Pharmacie Socrate",
    "address": "2236, Sidi Abdellah , Laayayda SALE",
    "phone": "05 37 82 34 62",
    "location": "https://www.telecontact.ma/plan-acces/pharmacie-socrate-/3305033/sale",
    "city": "Salé"
  },
  {
    "name": "Pharmacie Super Arrahma",
    "address": "bd Mohammed V, sect. A hay Arrahma n°1 SALE",
    "phone": "05 37 87 48 95",
    "location": "https://www.telecontact.ma/plan-acces/pharmacie-super-arrahma-/3226087/sale",
    "city": "Salé"
  },
  {
    "name": "Pharmacie Tabriquet",
    "address": "bd Lalla Asmaa, lotiss. Fabi n° 9, 11010  SALE",
    "phone": "05 37 86 33 35",
    "location": "https://www.telecontact.ma/plan-acces/pharmacie-tabriquet-/0326900/sale",
    "city": "Salé"
  },
  {
    "name": "Pharmacie Tahiri",
    "address": "lotiss. Said Hajji, résid. Al Boustane G4, 11160  SALE",
    "phone": "05 37 87 81 76",
    "location": "https://www.telecontact.ma/plan-acces/pharmacie-tahiri-/3199917/sale",
    "city": "Salé"
  },
  {
    "name": "Pharmacie Taib",
    "address": "11, rue Hafiane Cherkaoui, grp. Wiam Layayda, 11080  SALE",
    "phone": "05 37 87 39 11",
    "location": "https://www.telecontact.ma/plan-acces/pharmacie-taib-/2223942/sale",
    "city": "Salé"
  },
  {
    "name": "Pharmacie Taiba",
    "address": "1157, lotiss. Said Hajji, rte. de Kénitra, 11160  SALE",
    "phone": "05 37 81 73 68",
    "location": "https://www.telecontact.ma/plan-acces/pharmacie-taiba-/3211423/sale",
    "city": "Salé"
  },
  {
    "name": "Pharmacie Takoua",
    "address": "10, rue Oued Amlil, douar Essahli, hay Inbiaat, 11080  SALE",
    "phone": "05 37 80 21 89",
    "location": "https://www.telecontact.ma/plan-acces/pharmacie-takoua-/3103036/sale",
    "city": "Salé"
  },
  {
    "name": "Pharmacie Tidarine",
    "address": "151, rue Tidarine, Saniat hadj madani mag. n°1 sidi Moussa, 11060  SALE",
    "phone": "05 37 88 01 62",
    "location": "https://www.telecontact.ma/plan-acces/pharmacie-tidarine-/3103155/sale",
    "city": "Salé"
  },
  {
    "name": "Pharmacie Touti",
    "address": "7, rue Badr, Bettana, 11040  SALE",
    "phone": "05 37 84 37 98",
    "location": "https://www.telecontact.ma/plan-acces/pharmacie-touti-/2186402/sale",
    "city": "Salé"
  },
  {
    "name": "Pharmacie Volubilis",
    "address": "hay Essalam, sect. 11 (extension) n°607 bis, 11030  SALE",
    "phone": "05 37 81 33 54",
    "location": "https://www.telecontact.ma/plan-acces/pharmacie-volubilis-/2195337/sale",
    "city": "Salé"
  },
  {
    "name": "Pharmacie Wahiba",
    "address": "8, bd Moulay Rachid, Sala AlJadida, 11100  SALE",
    "phone": "05 37 53 24 24",
    "location": "https://www.telecontact.ma/plan-acces/pharmacie-wahiba-/3038634/sale",
    "city": "Salé"
  },
  {
    "name": "Pharmacie Ya Zamane",
    "address": "rte de Kénitra, km 3, résid. Ya-zamane 3, 11060  SALE",
    "phone": "05 37 87 88 00",
    "location": "https://www.telecontact.ma/plan-acces/pharmacie-ya-zamane-/3103121/sale",
    "city": "Salé"
  },
  {
    "name": "Pharmacie Yacout",
    "address": "25, lotiss. Yacout, Rte de Mehdia hay Chmaou, 11160  SALE",
    "phone": "05 37 87 87 17",
    "location": "https://www.telecontact.ma/plan-acces/pharmacie-yacout-/3062751/sale",
    "city": "Salé"
  },
  {
    "name": "Pharmacie Yakouta",
    "address": "hay Arrahma, sect. B, n°419, 11080  SALE",
    "phone": "05 37 87 03 41",
    "location": "https://www.telecontact.ma/plan-acces/pharmacie-yakouta-/2209786/sale",
    "city": "Salé"
  },
  {
    "name": "Pharmacie Inna",
    "address": "av. Ibn Haytam , résid. Abwab Annasr imm. 5 C4 Laayayda SALE",
    "phone": "05 37 87 38 15",
    "location": "https://www.telecontact.ma/plan-acces/pharmacie-inna-/3335514/sale",
    "city": "Salé"
  },
  {
    "name": "Pharmacie Jad",
    "address": "rte de Kénitra, douar Mika Hallala SALE",
    "phone": "05 37 88 72 27",
    "location": "https://www.telecontact.ma/plan-acces/pharmacie-jad-/3332140/sale",
    "city": "Salé"
  },
  {
    "name": "Pharmacie Kamil",
    "address": "145, rue Hssaine, Sala Al Jadida SALE",
    "phone": "05 37 82 80 56",
    "location": "https://www.telecontact.ma/plan-acces/pharmacie-kamil-/3332114/sale",
    "city": "Salé"
  },
  {
    "name": "Pharmacie Karrakchou",
    "address": "45, rue Boutswana, hay Oued Eddahab SALE",
    "phone": "05 37 87 37 55",
    "location": "https://www.telecontact.ma/plan-acces/pharmacie-karrakchou-/3137634/sale",
    "city": "Salé"
  },
  {
    "name": "Pharmacie Khalil",
    "address": "hay Essalam, sect. 1 n°124, av. Achouhada, 11030  SALE",
    "phone": "05 37 80 98 32",
    "location": "https://www.telecontact.ma/plan-acces/pharmacie-khalil-/2222836/sale",
    "city": "Salé"
  },
  {
    "name": "Pharmacie Koutoubia",
    "address": "41, rte de Mehdia, lotiss. Koutoubia II n°1, 11060  SALE",
    "phone": "05 37 78 46 33",
    "location": "https://www.telecontact.ma/plan-acces/pharmacie-koutoubia-/3199908/sale",
    "city": "Salé"
  },
  {
    "name": "Pharmacie l'Ittihad",
    "address": "34, bd Onze Janvier , 11150  SALE",
    "phone": "05 37 78 07 95",
    "location": "https://www.telecontact.ma/plan-acces/pharmacie-l-ittihad-/0327300/sale",
    "city": "Salé"
  },
  {
    "name": "Pharmacie l'Oasis",
    "address": "87, rue Lakhssasse, Sect. 7 Hay ElWaha Karia, 11100  SALE",
    "phone": "05 37 83 41 44",
    "location": "https://www.telecontact.ma/plan-acces/pharmacie-l-oasis-/3199912/sale",
    "city": "Salé"
  },
  {
    "name": "Pharmacie l'Opéra",
    "address": "Hay Tabriquet, résid. Sania II entré A n°1 SALE",
    "phone": "05 37 86 48 00",
    "location": "https://www.telecontact.ma/plan-acces/pharmacie-l-op-ra-/3037727/sale",
    "city": "Salé"
  },
  {
    "name": "Pharmacie la fontaine",
    "address": "8, bd Hassan II, Sala ElJadida, 11100  SALE",
    "phone": "05 37 53 29 08",
    "location": "https://www.telecontact.ma/plan-acces/pharmacie-la-fontaine-/3062747/sale",
    "city": "Salé"
  },
  {
    "name": "Pharmacie la Mamora",
    "address": "21, bd Moulay Youssef, Tabriquet, 11010  SALE",
    "phone": "05 37 86 37 11",
    "location": "https://www.telecontact.ma/plan-acces/pharmacie-la-mamora-/2149303/sale",
    "city": "Salé"
  },
  {
    "name": "Pharmacie la Pépinière",
    "address": "128, quartier la Pépinière, bloc L n°15, 11000  SALE",
    "phone": "05 37 86 37 20",
    "location": "https://www.telecontact.ma/plan-acces/pharmacie-la-p-pini-re-/0325500/sale",
    "city": "Salé"
  },
  {
    "name": "Pharmacie la Victoire",
    "address": "52, bd Annacer, Hay Oued Eddahab SALE",
    "phone": "05 37 87 18 69",
    "location": "https://www.telecontact.ma/plan-acces/pharmacie-la-victoire-/2209894/sale",
    "city": "Salé"
  },
  {
    "name": "Pharmacie Laayayda",
    "address": "1847, bd Annacer, Laayayda, 11090  SALE",
    "phone": "05 37 87 23 73",
    "location": "https://www.telecontact.ma/plan-acces/pharmacie-laayayda-/2209790/sale",
    "city": "Salé"
  },
  {
    "name": "Pharmacie Laayayda Addoha",
    "address": "ptojet le Jardin , lot.2 n°19 Laayayda SALE",
    "phone": "05 37 85 99 40",
    "location": "https://www.telecontact.ma/plan-acces/pharmacie-laayayda-addoha-/3335525/sale",
    "city": "Salé"
  },
  {
    "name": "Pharmacie Lafrougui",
    "address": "1229, rue Fkih Ben Salah, hay Inbiat SALE",
    "phone": "05 37 80 58 58",
    "location": "https://www.telecontact.ma/plan-acces/pharmacie-lafrougui-/3291051/sale",
    "city": "Salé"
  },
  {
    "name": "Pharmacie Lahkim",
    "address": "53, rue Al Mansoura, lotiss. Karim Allah, Hors Bab Chaâfa, 11060  SALE",
    "phone": "05 37 84 52 71",
    "location": "https://www.telecontact.ma/plan-acces/pharmacie-lahkim-/3120303/sale",
    "city": "Salé"
  },
  {
    "name": "Pharmacie Lazrak",
    "address": "hay Essalam, sect 11 n°608, 11030  SALE",
    "phone": "05 37 80 97 47",
    "location": "https://www.telecontact.ma/plan-acces/pharmacie-lazrak-/0324100/sale",
    "city": "Salé"
  },
  {
    "name": "Pharmacie les Abattoires",
    "address": "218, bd Al Fath, Sidi Moussa, 11060  SALE",
    "phone": "05 37 78 16 40",
    "location": "https://www.telecontact.ma/plan-acces/pharmacie-les-abattoires-/3037702/sale",
    "city": "Salé"
  },
  {
    "name": "Pharmacie les Arceaux",
    "address": "rte de Kénitra, sortie des Arcs, 11060  SALE",
    "phone": "05 37 78 12 26",
    "location": "https://www.telecontact.ma/plan-acces/pharmacie-les-arceaux-/2134750/sale",
    "city": "Salé"
  }
]
