[
  {
    "name": "Pharmacie Al Ouatya",
    "address": "av Hassan II , El Oitia, TanTan plage TAN TAN",
    "phone": "05 28 87 91 64",
    "location": "https://www.telecontact.ma/plan-acces/pharmacie-al-ouatya-/3041453/tan-tan",
    "city": "Tan-Tan"
  },
  {
    "name": "Pharmacie AlFajr",
    "address": "rue Ichbilia , Hay Sahraa TAN TAN",
    "phone": "05 28 87 88 95",
    "location": "",
    "city": "Tan-Tan"
  },
  {
    "name": "Pharmacie AlFath",
    "address": "bd AlFath , hay AlJadid TAN TAN",
    "phone": "05 28 76 51 61",
    "location": "https://www.telecontact.ma/plan-acces/pharmacie-alfath-/3271882/tan-tan",
    "city": "Tan-Tan"
  },
  {
    "name": "Pharmacie AlJanoub",
    "address": "190, bd Bir Anzarane  TAN TAN",
    "phone": "05 28 76 54 54",
    "location": "https://www.telecontact.ma/plan-acces/pharmacie-aljanoub-/3200240/tan-tan",
    "city": "Tan-Tan"
  },
  {
    "name": "Pharmacie Almadina",
    "address": "52, rue Tarfaya , 82000  TAN TAN",
    "phone": "05 28 87 72 64",
    "location": "https://www.telecontact.ma/plan-acces/pharmacie-almadina-/1789600/tan-tan",
    "city": "Tan-Tan"
  },
  {
    "name": "Pharmacie Andalous",
    "address": "hay Sahara , bloc C n°7 TAN TAN",
    "phone": "05 28 76 52 52",
    "location": "https://www.telecontact.ma/plan-acces/pharmacie-andalous-/3237478/tan-tan",
    "city": "Tan-Tan"
  },
  {
    "name": "Pharmacie Avenue Assalam",
    "address": "67, av Assalam , hay Jadid TAN TAN",
    "phone": "05 28 76 63 33",
    "location": "https://www.telecontact.ma/plan-acces/pharmacie-avenue-assalam-/3237469/tan-tan",
    "city": "Tan-Tan"
  },
  {
    "name": "Pharmacie Bir Anzarane",
    "address": "88, av. Bir Anzaran  TAN TAN",
    "phone": "05 28 87 84 78",
    "location": "https://www.telecontact.ma/plan-acces/pharmacie-bir-anzarane-/3041433/tan-tan",
    "city": "Tan-Tan"
  },
  {
    "name": "Pharmacie Bouanane",
    "address": "519, av. Mohamed V , Ain Rahma TAN TAN",
    "phone": "05 28 76 57 74",
    "location": "https://www.telecontact.ma/plan-acces/pharmacie-bouanane-/3041409/tan-tan",
    "city": "Tan-Tan"
  },
  {
    "name": "Pharmacie Centrale",
    "address": "276, bd. Mohamed V  TAN TAN",
    "phone": "05 28 87 73 44",
    "location": "https://www.telecontact.ma/plan-acces/pharmacie-centrale-/3041393/tan-tan",
    "city": "Tan-Tan"
  },
  {
    "name": "Pharmacie Chaâb",
    "address": "1, av Mokhtar Soussi  TAN TAN",
    "phone": "05 28 76 56 73",
    "location": "https://www.telecontact.ma/plan-acces/pharmacie-cha-b-/3237440/tan-tan",
    "city": "Tan-Tan"
  },
  {
    "name": "Pharmacie Chifaa",
    "address": "hay Ain Rahma , rue 18 TAN TAN",
    "phone": "05 28 76 69 16",
    "location": "https://www.telecontact.ma/plan-acces/pharmacie-chifaa-/3270751/tan-tan",
    "city": "Tan-Tan"
  },
  {
    "name": "Pharmacie de l'Hôpital",
    "address": "Hay Sahara , Bloc D n°5 TAN TAN",
    "phone": "05 28 76 51 40",
    "location": "https://www.telecontact.ma/plan-acces/pharmacie-de-l-h-pital-/3237484/tan-tan",
    "city": "Tan-Tan"
  },
  {
    "name": "Pharmacie de Tantan",
    "address": "106, Boulevard Mohamed V , 82000  TAN TAN",
    "phone": "05 28 87 70 73",
    "location": "https://www.telecontact.ma/plan-acces/pharmacie-de-tantan-/0332600/tan-tan",
    "city": "Tan-Tan"
  },
  {
    "name": "Pharmacie Ennour",
    "address": "32, rue Ecole Lalla Meryem  TAN TAN",
    "phone": "05 28 76 57 99",
    "location": "https://www.telecontact.ma/plan-acces/pharmacie-ennour-/3200238/tan-tan",
    "city": "Tan-Tan"
  },
  {
    "name": "Pharmacie Hay El Massira",
    "address": "hay Al Massira, bloc 3 n°2 TAN TAN",
    "phone": "05 28 76 00 68",
    "location": "https://www.telecontact.ma/plan-acces/pharmacie-hay-el-massira-/3313209/tan-tan",
    "city": "Tan-Tan"
  },
  {
    "name": "Pharmacie Ibn Sina",
    "address": "hay Nahda , n°65 TAN TAN",
    "phone": "05 28 76 51 18",
    "location": "https://www.telecontact.ma/plan-acces/pharmacie-ibn-sina-/3279033/tan-tan",
    "city": "Tan-Tan"
  },
  {
    "name": "Pharmacie la Résistance",
    "address": "av la Résistance  TAN TAN",
    "phone": "05 28 87 77 77",
    "location": "https://www.telecontact.ma/plan-acces/pharmacie-la-r-sistance-/3237454/tan-tan",
    "city": "Tan-Tan"
  },
  {
    "name": "Pharmacie Mekka",
    "address": "16, Hay El Jadid  TAN TAN",
    "phone": "05 27 57 51 27",
    "location": "https://www.telecontact.ma/plan-acces/pharmacie-mekka-/3237490/tan-tan",
    "city": "Tan-Tan"
  },
  {
    "name": "Pharmacie Meryame",
    "address": "Hay Al Jadid  TAN TAN",
    "phone": "05 28 76 68 68",
    "location": "https://www.telecontact.ma/plan-acces/pharmacie-meryame-/3237855/tan-tan",
    "city": "Tan-Tan"
  },
  {
    "name": "Pharmacie Sahara",
    "address": "106, bd Hassan II  TAN TAN",
    "phone": "05 28 87 75 73",
    "location": "https://www.telecontact.ma/plan-acces/pharmacie-sahara-/3041440/tan-tan",
    "city": "Tan-Tan"
  },
  {
    "name": "Pharmacie Tiguiria",
    "address": "hay Tiguiria  TAN TAN",
    "phone": "05 28 76 58 72",
    "location": "https://www.telecontact.ma/plan-acces/pharmacie-tiguiria-/3237456/tan-tan",
    "city": "Tan-Tan"
  }
]
