[
    {
        "name": "Pharmacie Hicham",
        "address": "hay Rachid , Sect. n°11 n°113 TIFLET",
        "phone": "05 37 51 41 74",
        "location": "https://www.telecontact.ma/plan-acces/pharmacie-hicham-/3200604/tiflet",
        "city": "Tiflet"
    },
    {
        "name": "Pharmacie Ibn Rochd",
        "address": "hay Amal , Sect. 4 n°217 TIFLET",
        "phone": "05 37 51 15 69",
        "location": "",
        "city": "Tiflet"
    },
    {
        "name": "Pharmacie Ibn Sina",
        "address": "bd Ibn Sina, hay Rachad TIFLET",
        "phone": "05 37 51 25 80",
        "location": "",
        "city": "Tiflet"
    },
    {
        "name": "Pharmacie Intellak",
        "address": "rue Bin Elouidane , hay Andalous TIFLET",
        "phone": "05 37 51 13 11",
        "location": "",
        "city": "Tiflet"
    },
    {
        "name": "Pharmacie Kotbiyine",
        "address": "hay Rachad , Sect. 2, n°561 TIFLET",
        "phone": "05 37 51 46 78",
        "location": "",
        "city": "Tiflet"
    },
    {
        "name": "Pharmacie la Gare",
        "address": "38, rue Bir Anzarane  TIFLET",
        "phone": "05 37 52 83 44",
        "location": "https://www.telecontact.ma/plan-acces/pharmacie-la-gare-/3200617/tiflet",
        "city": "Tiflet"
    },
    {
        "name": "Pharmacie la Grande Mosquée",
        "address": "112, rue Ben Smire , hay ElAmal TIFLET",
        "phone": "05 37 51 06 57",
        "location": "",
        "city": "Tiflet"
    },
    {
        "name": "Pharmacie Laadir",
        "address": "96, av Marche Verte , 2  TIFLET",
        "phone": "05 37 51 35 39",
        "location": "https://www.telecontact.ma/plan-acces/pharmacie-laadir-/3200620/tiflet",
        "city": "Tiflet"
    },
    {
        "name": "Pharmacie Mammout",
        "address": "centre Ait Malek  TIFLET",
        "phone": "06 66 34 70 59",
        "location": "https://www.telecontact.ma/plan-acces/pharmacie-mammout-/3305038/tiflet",
        "city": "Tiflet"
    },
    {
        "name": "Pharmacie Masjid Badr",
        "address": "964, lotiss. Dalia  TIFLET",
        "phone": "05 37 51 56 80",
        "location": "https://www.telecontact.ma/plan-acces/pharmacie-masjid-badr-/3265231/tiflet",
        "city": "Tiflet"
    },
    {
        "name": "Pharmacie Nicolas",
        "address": "10, lotiss. Annakhil  TIFLET",
        "phone": "05 37 51 54 63",
        "location": "https://www.telecontact.ma/plan-acces/pharmacie-nicolas-/3305612/tiflet",
        "city": "Tiflet"
    },
    {
        "name": "Pharmacie Omar",
        "address": "hay Racha , bd. 30 n°1174 TIFLET",
        "phone": "05 37 51 57 23",
        "location": "",
        "city": "Tiflet"
    },
    {
        "name": "Pharmacie Oued Dahab",
        "address": "hay ElJadid , bloc 11 TIFLET",
        "phone": "05 37 51 18 79",
        "location": "",
        "city": "Tiflet"
    },
    {
        "name": "Pharmacie Prestige",
        "address": "bd Mohammed V  TIFLET",
        "phone": "05 37 51 51 91",
        "location": "https://www.telecontact.ma/plan-acces/pharmacie-prestige-/9002304/tiflet",
        "city": "Tiflet"
    },
    {
        "name": "Pharmacie Razi",
        "address": "av Razi  TIFLET",
        "phone": "05 37 51 09 37",
        "location": "https://www.telecontact.ma/plan-acces/pharmacie-razi-/3200625/tiflet",
        "city": "Tiflet"
    },
    {
        "name": "Pharmacie Riad",
        "address": "1, bd Bir Anzarane, hay Essalam TIFLET",
        "phone": "05 37 51 17 36",
        "location": "https://www.telecontact.ma/plan-acces/pharmacie-riad-/3200626/tiflet",
        "city": "Tiflet"
    },
    {
        "name": "Pharmacie Zahrae",
        "address": "lotiss. Errachad , bloc 10 n°26 TIFLET",
        "phone": "05 37 51 51 77",
        "location": "",
        "city": "Tiflet"
    },
    {
        "name": "Pharmacie AlAnouar",
        "address": "234, av Bir Anzarane  TIFLET",
        "phone": "05 37 51 26 40",
        "location": "https://www.telecontact.ma/plan-acces/pharmacie-alanouar-/3200603/tiflet",
        "city": "Tiflet"
    },
    {
        "name": "Pharmacie AlWarda",
        "address": "Cité Warda , n°83 TIFLET",
        "phone": "05 37 51 45 00",
        "location": "https://www.telecontact.ma/plan-acces/pharmacie-alwarda-/3200602/tiflet",
        "city": "Tiflet"
    },
    {
        "name": "Pharmacie Andalous",
        "address": "hay Andalous , résid. la Mosquée TIFLET",
        "phone": "05 37 51 40 11",
        "location": "https://www.telecontact.ma/plan-acces/pharmacie-andalous-/3200601/tiflet",
        "city": "Tiflet"
    },
    {
        "name": "Pharmacie Aniber",
        "address": "hay Nahda 2  TIFLET",
        "phone": "05 37 51 28 35",
        "location": "",
        "city": "Tiflet"
    },
    {
        "name": "Pharmacie Arrachad",
        "address": "rue de Kénitra  TIFLET",
        "phone": "05 37 51 23 63",
        "location": "https://www.telecontact.ma/plan-acces/pharmacie-arrachad-/3200600/tiflet",
        "city": "Tiflet"
    },
    {
        "name": "Pharmacie Chaab",
        "address": "41, rue de Kénitra , hay ElFarah TIFLET",
        "phone": "05 37 51 24 49",
        "location": "https://www.telecontact.ma/plan-acces/pharmacie-chaab-/3200598/tiflet",
        "city": "Tiflet"
    },
    {
        "name": "Pharmacie Chifae",
        "address": "27, rue d'Ifni , hay ElAmal TIFLET",
        "phone": "05 37 51 48 34",
        "location": "https://www.telecontact.ma/plan-acces/pharmacie-chifae-/3200597/tiflet",
        "city": "Tiflet"
    },
    {
        "name": "Pharmacie Dalia",
        "address": "61, hay Dalia  TIFLET",
        "phone": "05 37 51 59 51",
        "location": "https://www.telecontact.ma/plan-acces/pharmacie-dalia-/3305049/tiflet",
        "city": "Tiflet"
    },
    {
        "name": "Pharmacie de Tiflet",
        "address": "av. Mohammed V , 15400  TIFLET",
        "phone": "05 37 51 22 07",
        "location": "https://www.telecontact.ma/plan-acces/pharmacie-de-tiflet-/0333900/tiflet",
        "city": "Tiflet"
    },
    {
        "name": "Pharmacie du centre",
        "address": "Rue Ben Smim , 15400  TIFLET",
        "phone": "05 37 51 23 59",
        "location": "https://www.telecontact.ma/plan-acces/pharmacie-du-centre-/0308000/tiflet",
        "city": "Tiflet"
    },
    {
        "name": "Pharmacie du Collège",
        "address": "25, Rue d'Azilah , 15400  TIFLET",
        "phone": "05 37 51 26 85",
        "location": "https://www.telecontact.ma/plan-acces/pharmacie-du-coll-ge-/1624700/tiflet",
        "city": "Tiflet"
    },
    {
        "name": "Pharmacie El Baladia",
        "address": "4, bd Youssef Ibn Tachfine, hay Ennahda II TIFLET",
        "phone": "05 37 51 31 01",
        "location": "https://www.telecontact.ma/plan-acces/pharmacie-el-baladia-/3305566/tiflet",
        "city": "Tiflet"
    },
    {
        "name": "Pharmacie Elaissi",
        "address": "1995, bd Tarik Ibn Ziad , Ennahda II TIFLET",
        "phone": "05 37 51 17 45",
        "location": "https://www.telecontact.ma/plan-acces/pharmacie-elaissi-/3200614/tiflet",
        "city": "Tiflet"
    }
]